[
  {
    "Resource": {
      "ID": "0",
      "Name": "LifeHouse Crisis Maternity Home",
      "Address1": "424 E. Monastery St.",
      "Address2": "",
      "city": "Springfield",
      "State": "MO",
      "Zip": "65807",
      "County": "GREENE COUNTY",
      "Phone": "417-720-4213",
      "Fax": "",
      "TTY": "",
      "Tollfree": "",
      "Hotline": "",
      "Email": "",
      "Webpage": "www.lifehousecmh.org",
      "FacebookName": "LifeHouse Crisis Maternity Home",
      "FacebookUrl": "https://www.facebook.com/pages/LifeHouse-Crisis-Maternity-Home/112256885458825",
      "Twitter": "",
      "Services": "Protect the unborn and their mothers in crisis situations by providing food, shelter, advocacy and education in a safe and loving environment.",
      "Latitude": "37.137965",
      "Longitude": "-93.289829",
      "Accuracy": "0.8",
      "Score": "range_interpolation",
      "AccuracyType": null
    },
    "Tags": [
      "Have Children",
      "Married Woman",
      "Age 30-49",
      "Single Man",
      "Age 13-17",
      "Current Alcohol Use"
    ]
  },
  {
    "Resource": {
      "ID": "1111",
      "Name": "H.O.P.E. Foundation",
      "Address1": "P.O. Box 1642",
      "Address2": "",
      "city": "Springfield",
      "State": "MO",
      "Zip": "65806",
      "County": "Greene",
      "Phone": "417-316-3216",
      "Fax": "417-429-2950",
      "TTY": "",
      "Tollfree": "",
      "Hotline": "",
      "Email": "hopeapplication@hotmail.com",
      "Webpage": "www.askforhope.org",
      "FacebookName": "",
      "FacebookUrl": "",
      "Twitter": "",
      "Services": "The H.O.P.E. Foundation assists families by Helping Overcome Pediatric Emergencies. Our not-for-profit organization addresses needs not covered by national foundations and insurance.",
      "Latitude": "37.205585",
      "Longitude": "-93.299157",
      "Accuracy": "1",
      "Score": "place",
      "AccuracyType": null
    },
    "Tags": [
      "Have Children",
      "Married Woman",
      "Age 30-49",
      "Single Man",
      "Age 13-17",
      "Current Alcohol Use"
    ]
  },
  {
    "Resource": {
      "ID": "1131333",
      "Name": "The Salvation Army Family Thrift Store",
      "Address1": "1737 S. Campbell Ave.",
      "Address2": "",
      "city": "Springfield",
      "State": "MO",
      "Zip": "65807-2003",
      "County": "",
      "Phone": "417-866-9426",
      "Fax": "",
      "TTY": "",
      "Tollfree": "",
      "Hotline": "",
      "Email": "robin_redwing@usc.salvationarmy.org",
      "Webpage": "www.usc.salvationarmy.org/springfield-mo",
      "FacebookName": "The Salvation Army - Springfield, MO",
      "FacebookUrl": "https://www.facebook.com/SalvationArmyOzarkArea",
      "Twitter": "",
      "Services": "Sells new and donated items to benefit the Salvation Army.",
      "Latitude": "37.18393",
      "Longitude": "-93.295076",
      "Accuracy": "1",
      "Score": "range_interpolation",
      "AccuracyType": null
    },
    "Tags": [
      "Have Children",
      "Married Woman",
      "Age 30-49",
      "Single Man",
      "Age 13-17",
      "Current Alcohol Use"
    ]
  },
  {
    "Resource": {
      "ID": "1160",
      "Name": "CoxHealth Center For Addictions",
      "Address1": "Cox Medical Center North",
      "Address2": "1423 N. Jefferson Ave.",
      "city": "Springfield",
      "State": "MO",
      "Zip": "65802",
      "County": "GREENE COUNTY",
      "Phone": "417-269-2273",
      "Fax": "417-269-8851",
      "TTY": "",
      "Tollfree": "",
      "Hotline": "",
      "Email": "gene.davison@coxhealth.com",
      "Webpage": "www.coxhealth.com",
      "FacebookName": "",
      "FacebookUrl": "",
      "Twitter": "",
      "Services": "Provides out-patient substance abuse treatment for adults.",
      "Latitude": "37.123107",
      "Longitude": "-93.447707",
      "Accuracy": "1",
      "Score": "street_center",
      "AccuracyType": null
    },
    "Tags": [
      "Have Children",
      "Married Woman",
      "Age 30-49",
      "Single Man",
      "Age 13-17",
      "Current Alcohol Use"
    ]
  },
  {
    "Resource": {
      "ID": "1174",
      "Name": "Harmony House",
      "Address1": "P.O. Box 5972",
      "Address2": "",
      "city": "Springfield",
      "State": "MO",
      "Zip": "65801",
      "County": "GREENE COUNTY",
      "Phone": "417-837-7700",
      "Fax": "417-837-7707",
      "TTY": "417-837-7705",
      "Tollfree": "1-800-831-6863",
      "Hotline": "417-864-7233",
      "Email": "brittneyw@myharmonyhouse.org",
      "Webpage": "www.myharmonyhouse.org",
      "FacebookName": "Harmony House",
      "FacebookUrl": "https://www.facebook.com/MyHarmonyHouse",
      "Twitter": "@myharmonyhouse",
      "Services": "3",
      "Latitude": "37.25807",
      "Longitude": "-93.343673",
      "Accuracy": "1",
      "Score": "place",
      "AccuracyType": null
    },
    "Tags": [
      "Have Children",
      "Married Woman",
      "Age 30-49",
      "Single Man",
      "Age 13-17",
      "Current Alcohol Use"
    ]
  },
  {
    "Resource": {
      "ID": "1176",
      "Name": "The Victim Center",
      "Address1": "819 N. Boonville Ave.",
      "Address2": "",
      "city": "Springfield",
      "State": "MO",
      "Zip": "65802",
      "County": "GREENE COUNTY",
      "Phone": "417-863-7273",
      "Fax": "417-863-9048",
      "TTY": "",
      "Tollfree": "1-800-743-5265",
      "Hotline": "24 hour--417-864-SAFE (7233)",
      "Email": "hope@thevictimcenter.org",
      "Webpage": "www.thevictimcenter.org",
      "FacebookName": "The Victim Center",
      "FacebookUrl": "https://www.facebook.com/thevictimcenter",
      "Twitter": "",
      "Services": "Provides a wide range of services for victims of violent and sexual crimes.",
      "Latitude": "37.216083",
      "Longitude": "-93.292523",
      "Accuracy": "1",
      "Score": "range_interpolation",
      "AccuracyType": null
    },
    "Tags": [
      "Have Children",
      "Married Woman",
      "Age 30-49",
      "Single Man",
      "Age 13-17",
      "Current Alcohol Use"
    ]
  },
  {
    "Resource": {
      "ID": "1203",
      "Name": "State of Missouri: Department of Mental Health -- Division of Developmental Disabilities, Springfield Regional Office",
      "Address1": "1515 E. Pythian St.",
      "Address2": "",
      "city": "Springfield",
      "State": "MO",
      "Zip": "65802",
      "County": "GREENE COUNTY",
      "Phone": "417-895-7400",
      "Fax": "417-895-7412",
      "TTY": "",
      "Tollfree": "",
      "Hotline": "1-888-549-6635",
      "Email": "",
      "Webpage": "www.dmh.mo.gov",
      "FacebookName": "",
      "FacebookUrl": "",
      "Twitter": "",
      "Services": "Serves a population that has developmental disabilities, such as intellectual disabilities, cerebral palsy, head injuries, autism, epilepsy and certain learning disabilities.",
      "Latitude": "37.218586",
      "Longitude": "-93.267506",
      "Accuracy": "1",
      "Score": "range_interpolation",
      "AccuracyType": null
    },
    "Tags": [
      "Have Children",
      "Married Woman",
      "Age 30-49",
      "Single Man",
      "Age 13-17",
      "Current Alcohol Use"
    ]
  },
  {
    "Resource": {
      "ID": "1206",
      "Name": "The Arc of the Ozarks",
      "Address1": "1501 E. Pythian St.",
      "Address2": "",
      "city": "Springfield",
      "State": "MO",
      "Zip": "65802",
      "County": "GREENE COUNTY",
      "Phone": "417-864-7887",
      "Fax": "417-864-4307",
      "TTY": "",
      "Tollfree": "",
      "Hotline": "",
      "Email": "info@thearcoftheozarks.org",
      "Webpage": "www.thearcoftheozarks.org",
      "FacebookName": "The Arc of the Ozarks",
      "FacebookUrl": "https://www.facebook.com/thearcoftheozarks?rf=172222822823919",
      "Twitter": "",
      "Services": "Supports individuals with disabilities in directing their own lives as valued members of the community. A United Way of the Ozarks partner agency.",
      "Latitude": "37.218599",
      "Longitude": "-93.26769",
      "Accuracy": "1",
      "Score": "range_interpolation",
      "AccuracyType": null
    },
    "Tags": [
      "Have Children",
      "Married Woman",
      "Age 30-49",
      "Single Man",
      "Age 13-17",
      "Current Alcohol Use"
    ]
  },
  {
    "Resource": {
      "ID": "2244556",
      "Name": "State of Missouri: Department of Social Services Greene County Children's Division",
      "Address1": "149 Park Central Square",
      "Address2": "",
      "city": "Springfield",
      "State": "MO",
      "Zip": "65806",
      "County": "",
      "Phone": "417-895-6000",
      "Fax": "",
      "TTY": "1-800-735-2966",
      "Tollfree": "",
      "Hotline": "Child Abuse & Neglect Hotline 1-800-392-3738",
      "Email": "",
      "Webpage": "www.dss.mo.gov/cd",
      "FacebookName": "",
      "FacebookUrl": "",
      "Twitter": "",
      "Services": "Responds to reports of child abuse and neglect and administers a system of care for children who cannot safely remain at home; partners in early childhood and prevention programs.",
      "Latitude": "37.208859",
      "Longitude": "-93.292867",
      "Accuracy": "1",
      "Score": "range_interpolation",
      "AccuracyType": null
    },
    "Tags": [
      "Have Children",
      "Married Woman",
      "Age 30-49",
      "Single Man",
      "Age 13-17",
      "Current Alcohol Use"
    ]
  },
  {
    "Resource": {
      "ID": "24625",
      "Name": "Habitat for Humanity of Springfield, Missouri, Inc.",
      "Address1": "2410 S. Scenic Ave.",
      "Address2": "",
      "city": "Springfield",
      "State": "MO",
      "Zip": "65807",
      "County": "GREENE COUNTY",
      "Phone": "417-829-4001",
      "Fax": "417-829-4003",
      "TTY": "",
      "Tollfree": "",
      "Hotline": "",
      "Email": "info@habitatspringfieldmo.org",
      "Webpage": "www.habitatspringfieldmo.org",
      "FacebookName": "Habitat for Humanity of Springfield, MO",
      "FacebookUrl": "https://www.facebook.com/habitatspringfieldmo/restore",
      "Twitter": "@HFHSpringfield",
      "Services": "Habitat for Humanity of Springfield, MO, INC. (HFHS) builds and revitalizes homes in partnership with very low-income individuals or families to achieve the vision of everyone having a decent place to live. HFHS utilizes volunteers to build and revitalize the homes for the HFHS program. Volunteers also assist in the HFHS ReStore, a store that sells new and gently used building materials, furniture, and home goods to financially support the mission of the organization.",
      "Latitude": "37.171528",
      "Longitude": "-93.331804",
      "Accuracy": "1",
      "Score": "range_interpolation",
      "AccuracyType": null
    },
    "Tags": [
      "Have Children",
      "Married Woman",
      "Age 30-49",
      "Single Man",
      "Age 13-17",
      "Current Alcohol Use"
    ]
  },
  {
    "Resource": {
      "ID": "24627",
      "Name": "Child Care AwareÂ® of Southern Missouri/Early Childhood One Stop",
      "Address1": "1710 E. Chestnut Expressway",
      "Address2": "",
      "city": "Springfield",
      "State": "MO",
      "Zip": "65804",
      "County": "GREENE COUNTY",
      "Phone": "417-887-3545",
      "Fax": "417-823-9459",
      "TTY": "",
      "Tollfree": "1-800-743-8497",
      "Hotline": "",
      "Email": "npiper@ccochildcare.org",
      "Webpage": "www.ccozarks.org/CCAsouthernMO",
      "FacebookName": "Child Care Aware of Southern Missouri",
      "FacebookUrl": "www.facebook.com/CCAsouthernMO",
      "Twitter": "@CCAsouthernMO",
      "Services": "Child Care AwareÂ® of Southern Missouri provides ongoing support to child care professionals through on-site technical assistance and group training opportunities.",
      "Latitude": "37.215672",
      "Longitude": "-93.313645",
      "Accuracy": "0.9",
      "Score": "range_interpolation",
      "AccuracyType": null
    },
    "Tags": [
      "Have Children",
      "Married Woman",
      "Age 30-49",
      "Single Man",
      "Age 13-17",
      "Current Alcohol Use"
    ]
  },
  {
    "Resource": {
      "ID": "24628",
      "Name": "Boys & Girls Clubs of Springfield, Inc.",
      "Address1": "1410 N. Fremont Ave.",
      "Address2": "",
      "city": "Springfield",
      "State": "MO",
      "Zip": "65802",
      "County": "GREENE COUNTY",
      "Phone": "417-862-9249",
      "Fax": "417-862-4952",
      "TTY": "",
      "Tollfree": "",
      "Hotline": "",
      "Email": "rcarpenter@bgclubspringfield.org",
      "Webpage": "www.bgclubspringfield.org",
      "FacebookName": "",
      "FacebookUrl": "",
      "Twitter": "",
      "Services": "Provides after-school and summer educational and recreational activities for children.",
      "Latitude": "37.223931",
      "Longitude": "-93.270394",
      "Accuracy": "1",
      "Score": "range_interpolation",
      "AccuracyType": null
    },
    "Tags": [
      "Have Children",
      "Married Woman",
      "Age 30-49",
      "Single Man",
      "Age 13-17",
      "Current Alcohol Use"
    ]
  },
  {
    "Resource": {
      "ID": "24753",
      "Name": "The Kitchen, Inc.",
      "Address1": "1630 N. Jefferson Ave.",
      "Address2": "",
      "city": "Springfield",
      "State": "MO",
      "Zip": "65803",
      "County": "GREENE COUNTY",
      "Phone": "417-837-1500",
      "Fax": "417-831-6709",
      "TTY": "",
      "Tollfree": "",
      "Hotline": "",
      "Email": "info@thekitcheninc.org",
      "Webpage": "www.thekitcheninc.org",
      "FacebookName": "The Kitchen, Inc.",
      "FacebookUrl": "https://www.facebook.com/TheKitchenInc",
      "Twitter": "@TheKitchenIncMO",
      "Services": "The Kitchen's programs meet the needs and address the root cause of poverty and homelessness. Services include medical and dental services, housing, counseling, healthcare, education, youth services, clothing, advocacy, life skills and homelessness prevention.",
      "Latitude": "37.227777",
      "Longitude": "-93.288909",
      "Accuracy": "1",
      "Score": "range_interpolation",
      "AccuracyType": null
    },
    "Tags": [
      "Have Children",
      "Married Woman",
      "Age 30-49",
      "Single Man",
      "Age 13-17",
      "Current Alcohol Use"
    ]
  },
  {
    "Resource": {
      "ID": "2992",
      "Name": "Women in Need",
      "Address1": "P.O. Box 4626",
      "Address2": "",
      "city": "Springfield",
      "State": "MO",
      "Zip": "65808",
      "County": "",
      "Phone": "417-234-7338",
      "Fax": "417-862-6892",
      "TTY": "",
      "Tollfree": "",
      "Hotline": "",
      "Email": "",
      "Webpage": "womeninneedoftheozarks.org",
      "FacebookName": "",
      "FacebookUrl": "",
      "Twitter": "",
      "Services": "Provides funds to assist working women with one-time, short-term needs such as tires, utilities, furniture and appliances, and childcare, etc.",
      "Latitude": "37.25807",
      "Longitude": "-93.343673",
      "Accuracy": "1",
      "Score": "place",
      "AccuracyType": null
    },
    "Tags": [
      "Have Children",
      "Married Woman",
      "Age 30-49",
      "Single Man",
      "Age 13-17",
      "Current Alcohol Use"
    ]
  },
  {
    "Resource": {
      "ID": "300392887",
      "Name": "RSVP Reading Buddy Program",
      "Address1": "627 N. Glenstone Ave.",
      "Address2": "P.O. Box 3947",
      "city": "Springfield",
      "State": "MO",
      "Zip": "65808",
      "County": "",
      "Phone": "417-831-9696 or 417-862-3595",
      "Fax": "417-862-2129",
      "TTY": "",
      "Tollfree": "",
      "Hotline": "",
      "Email": "rsvpreadingbuddy@ccozarks.org",
      "Webpage": "ccozarks.org",
      "FacebookName": "",
      "FacebookUrl": "",
      "Twitter": "",
      "Services": "Volunteers, age 55 and older, read with and mentor students in grades K-3 on a weekly basis. Training is provided. Fifty area schools in three counties participate. Funding is partially provided by the United Way of the Ozarks.",
      "Latitude": "37.213718",
      "Longitude": "-93.261847",
      "Accuracy": "1",
      "Score": "range_interpolation",
      "AccuracyType": null
    },
    "Tags": [
      "Have Children",
      "Married Woman",
      "Age 30-49",
      "Single Man",
      "Age 13-17",
      "Current Alcohol Use"
    ]
  },
  {
    "Resource": {
      "ID": "32153",
      "Name": "Crosslines",
      "Address1": "615 N. Glenstone Ave.",
      "Address2": "",
      "city": "Springfield",
      "State": "MO",
      "Zip": "65802",
      "County": "GREENE COUNTY",
      "Phone": "417-869-0563",
      "Fax": "417-864-4614",
      "TTY": "",
      "Tollfree": "",
      "Hotline": "",
      "Email": "randerson@ccozarks.org",
      "Webpage": "www.crosslines.org",
      "FacebookName": "Crosslines of Springfield",
      "FacebookUrl": "https://www.facebook.com/Crosslines.Springfield",
      "Twitter": "@CrosslinesSgf",
      "Services": "Provides emergency assistance to low-income families. Primary services include a food pantry; other services include diapers, prenatal and children's vitamins, voicemail for job seekers and seasonal help with coats, holiday food baskets and Christmas toys; an operating agency of the Council of Churches of the Ozarks.",
      "Latitude": "37.213632",
      "Longitude": "-93.261876",
      "Accuracy": "1",
      "Score": "range_interpolation",
      "AccuracyType": null
    },
    "Tags": [
      "Have Children",
      "Married Woman",
      "Age 30-49",
      "Single Man",
      "Age 13-17",
      "Current Alcohol Use"
    ]
  },
  {
    "Resource": {
      "ID": "32454",
      "Name": "Ozarks Food Harvest",
      "Address1": "2810 N. Cedarbrook Ave.",
      "Address2": "P.O. Box 5746",
      "city": "Springfield",
      "State": "MO",
      "Zip": "65801",
      "County": "GREENE COUNTY",
      "Phone": "417-865-3411",
      "Fax": "417-865-0504",
      "TTY": "",
      "Tollfree": "",
      "Hotline": "",
      "Email": "bbrown@ozarksfoodharvest.org",
      "Webpage": "www.ozarksfoodharvest.org",
      "FacebookName": "Ozarks Food Harvest",
      "FacebookUrl": "https://www.facebook.com/ozarksfoodharvest",
      "Twitter": "@ozksfoodharvest",
      "Services": "The Feeding America food bank for southwest Missouri, serving 200 organizations across 28 Ozarks counties. Distributes more than 13 million meals annually to 260,000 unduplicated individuals.",
      "Latitude": "37.219889",
      "Longitude": "-93.238929",
      "Accuracy": "0.8",
      "Score": "street_center",
      "AccuracyType": null
    },
    "Tags": [
      "Have Children",
      "Married Woman",
      "Age 30-49",
      "Single Man",
      "Age 13-17",
      "Current Alcohol Use"
    ]
  },
  {
    "Resource": {
      "ID": "33150",
      "Name": "City Utilities: Access Express",
      "Address1": "1505 N. Boonville Ave.",
      "Address2": "",
      "city": "Springfield",
      "State": "MO",
      "Zip": "65803",
      "County": "GREENE COUNTY",
      "Phone": "417-831-8782",
      "Fax": "417-831-8803",
      "TTY": "",
      "Tollfree": "",
      "Hotline": "",
      "Email": "melissa.spurlock@cityutilities.net",
      "Webpage": "www.cityutilities.net",
      "FacebookName": "",
      "FacebookUrl": "",
      "Twitter": "",
      "Services": "Provides paratransit service for disabled people who are unable to access the regular city bus service.",
      "Latitude": "37.226366",
      "Longitude": "-93.29224",
      "Accuracy": "1",
      "Score": "range_interpolation",
      "AccuracyType": null
    },
    "Tags": [
      "Have Children",
      "Married Woman",
      "Age 30-49",
      "Single Man",
      "Age 13-17",
      "Current Alcohol Use"
    ]
  },
  {
    "Resource": {
      "ID": "33182",
      "Name": "NAMI Southwest Missouri",
      "Address1": "1443 N Robberson Ave., Suite 408",
      "Address2": "",
      "city": "Springfield",
      "State": "MO",
      "Zip": "65802",
      "County": "GREENE COUNTY",
      "Phone": "417-864-3027",
      "Fax": "417-720-1918",
      "TTY": "",
      "Tollfree": "",
      "Hotline": "1-877-535-HELP (4357) Warmline--417-864-3027",
      "Email": "nami@namiswmo.com",
      "Webpage": "www.namiswmo.com",
      "FacebookName": "NAMI SWMO National Alliance on Mental Illness",
      "FacebookUrl": "https://www.facebook.com/NamiSwmo",
      "Twitter": "@NAMISWMODewayne",
      "Services": "Support-Education-Advocacy-Referrals. NAMI Southwest Missouri and the Hope Center encourage actions that lead individuals toward recovery, self-advocacy and improving their own lives to become contributing members of our community. Support groups are provided free of charge. Education program embraces the challenges of stigma reduction and suicide prevention courses.",
      "Latitude": "37.224808",
      "Longitude": "-93.290814",
      "Accuracy": "1",
      "Score": "range_interpolation",
      "AccuracyType": null
    },
    "Tags": [
      "Have Children",
      "Married Woman",
      "Age 30-49",
      "Single Man",
      "Age 13-17",
      "Current Alcohol Use"
    ]
  },
  {
    "Resource": {
      "ID": "33187",
      "Name": "Big Brothers Big Sisters of the Ozarks",
      "Address1": "3372 W. Battlefield Road",
      "Address2": "",
      "city": "Springfield",
      "State": "MO",
      "Zip": "65807",
      "County": "GREENE COUNTY",
      "Phone": "417-889-9136",
      "Fax": "417-889-8339",
      "TTY": "",
      "Tollfree": "",
      "Hotline": "",
      "Email": "bbbs@bigbro.com",
      "Webpage": "www.bigbro.com",
      "FacebookName": "Big Brothers Big Sisters of the Ozarks",
      "FacebookUrl": "https://www.facebook.com/BBBSOzarks",
      "Twitter": "@bigbrobigsis",
      "Services": "Provides children facing adversity with strong and enduring, professionally supported one-to-one relationships that change their lives for the better, forever.",
      "Latitude": "37.160279",
      "Longitude": "-93.346567",
      "Accuracy": "1",
      "Score": "range_interpolation",
      "AccuracyType": null
    },
    "Tags": [
      "Have Children",
      "Married Woman",
      "Age 30-49",
      "Single Man",
      "Age 13-17",
      "Current Alcohol Use"
    ]
  },
  {
    "Resource": {
      "ID": "33190",
      "Name": "Boys & Girls Clubs of Springfield Partners in Education (formerly Auxiliary)",
      "Address1": "1410 N. Fremont Ave.",
      "Address2": "",
      "city": "Springfield",
      "State": "MO",
      "Zip": "65802",
      "County": "GREENE COUNTY",
      "Phone": "417-862-9249",
      "Fax": "417-862-4952",
      "TTY": "",
      "Tollfree": "",
      "Hotline": "",
      "Email": "dherren@bgclubspringfield.org",
      "Webpage": "www.bgclubspringfield.org",
      "FacebookName": "Boys & Girls Clubs of Springfield",
      "FacebookUrl": "https://www.facebook.com/bgclubspringfield.org",
      "Twitter": "@BGC Springfield",
      "Services": "Supports the Boys and Girls Clubs of Springfield and furnishes scholarships and secondary educational funding for youth.",
      "Latitude": "37.223931",
      "Longitude": "-93.270394",
      "Accuracy": "1",
      "Score": "range_interpolation",
      "AccuracyType": null
    },
    "Tags": [
      "Have Children",
      "Married Woman",
      "Age 30-49",
      "Single Man",
      "Age 13-17",
      "Current Alcohol Use"
    ]
  },
  {
    "Resource": {
      "ID": "33199",
      "Name": "State of Missouri: Department of Health and Senior Services -- Bureau of Special Health Care Needs",
      "Address1": "149 Park Central Square, Suite 116 (physical location)",
      "Address2": "P.O. Box 777, MPO",
      "city": "Springfield",
      "State": "MO",
      "Zip": "65801",
      "County": "GREENE COUNTY",
      "Phone": "417-895-6905",
      "Fax": "417-895-6990",
      "TTY": "",
      "Tollfree": "",
      "Hotline": "",
      "Email": "",
      "Webpage": "www.health.mo.gov",
      "FacebookName": "",
      "FacebookUrl": "",
      "Twitter": "",
      "Services": "Helps children and adults to age 21 who have serious or chronic medical conditions obtain treatment they may not be able to otherwise afford.",
      "Latitude": "37.208859",
      "Longitude": "-93.292867",
      "Accuracy": "1",
      "Score": "range_interpolation",
      "AccuracyType": null
    },
    "Tags": [
      "Have Children",
      "Married Woman",
      "Age 30-49",
      "Single Man",
      "Age 13-17",
      "Current Alcohol Use"
    ]
  },
  {
    "Resource": {
      "ID": "33200",
      "Name": "Burrell Behavioral Health",
      "Address1": "1300 Bradford Parkway",
      "Address2": "",
      "city": "Springfield",
      "State": "MO",
      "Zip": "65804",
      "County": "GREENE COUNTY",
      "Phone": "417-761-5000",
      "Fax": "417-761-5521",
      "TTY": "417-761-5002",
      "Tollfree": "1-800-299-1334",
      "Hotline": "24 hr. Crisis Line--417-862-6555 locally or 1-800-494-7355",
      "Email": "denise.mills@burrellcenter.com",
      "Webpage": "www.burrellcenter.com",
      "FacebookName": "",
      "FacebookUrl": "",
      "Twitter": "",
      "Services": "Provides a comprehensive array of behavioral health treatment, rehabilitation and education services; operates a suicide prevention hotline that serves Polk, Greene, Webster, Christian, Stone and Taney counties in Missouri.",
      "Latitude": "37.14677",
      "Longitude": "-93.274949",
      "Accuracy": "1",
      "Score": "range_interpolation",
      "AccuracyType": null
    },
    "Tags": [
      "Have Children",
      "Married Woman",
      "Age 30-49",
      "Single Man",
      "Age 13-17",
      "Current Alcohol Use"
    ]
  },
  {
    "Resource": {
      "ID": "33205",
      "Name": "A.O. Treatment Services",
      "Address1": "2411 W. Catalpa St.",
      "Address2": "P.O. Box 1277",
      "city": "Springfield",
      "State": "MO",
      "Zip": "65801",
      "County": "GREENE COUNTY",
      "Phone": "417-862-3455",
      "Fax": "417-862-9771",
      "TTY": "",
      "Tollfree": "1-877-862-3455",
      "Hotline": "",
      "Email": "mturner@aoinc.org",
      "Webpage": "www.aoinc.org",
      "FacebookName": "Alternative Opportunities Treatment Servicesâ€‹",
      "FacebookUrl": "â€‹ â€‹https://www.facebook.com/AOTreatmentServices",
      "Twitter": "",
      "Services": "Residential substance abuse treatment center for women participating in the Comprehensive Substance Treatment and Rehabilitation program (CSTAR) for women and their children.",
      "Latitude": "37.193459",
      "Longitude": "-93.32491",
      "Accuracy": "1",
      "Score": "range_interpolation",
      "AccuracyType": null
    },
    "Tags": [
      "Have Children",
      "Married Woman",
      "Age 30-49",
      "Single Man",
      "Age 13-17",
      "Current Alcohol Use"
    ]
  },
  {
    "Resource": {
      "ID": "33209",
      "Name": "Child Advocacy Center, Inc.",
      "Address1": "1033 E. Walnut St.",
      "Address2": "",
      "city": "Springfield",
      "State": "MO",
      "Zip": "65806",
      "County": "GREENE COUNTY",
      "Phone": "417-831-2327",
      "Fax": "417-831-5122",
      "TTY": "",
      "Tollfree": "",
      "Hotline": "",
      "Email": "barbara@childadvocacycenter.org",
      "Webpage": "www.childadvocacycenter.org",
      "FacebookName": "",
      "FacebookUrl": "",
      "Twitter": "",
      "Services": "Provides a child-friendly setting in which to offer objective forensic interviews and sensitive medical exams for alleged victims of child abuse.",
      "Latitude": "37.206768",
      "Longitude": "-93.279885",
      "Accuracy": "1",
      "Score": "range_interpolation",
      "AccuracyType": null
    },
    "Tags": [
      "Have Children",
      "Married Woman",
      "Age 30-49",
      "Single Man",
      "Age 13-17",
      "Current Alcohol Use"
    ]
  },
  {
    "Resource": {
      "ID": "33210",
      "Name": "Child Care Food Program",
      "Address1": "1710 E. Chestnut Expressway",
      "Address2": "",
      "city": "Springfield",
      "State": "MO",
      "Zip": "65802",
      "County": "GREENE COUNTY",
      "Phone": "417-865-8427",
      "Fax": "417-865-6437",
      "TTY": "",
      "Tollfree": "1-800-818-6812",
      "Hotline": "",
      "Email": "vicki@ccfpfood.com",
      "Webpage": "www.ccfpfood.com",
      "FacebookName": "",
      "FacebookUrl": "",
      "Twitter": "",
      "Services": "USDA reimbursement program for licensed and registered child care providers for the meals fed to children in care; an operating agency of Council of Churches of the Ozarks.",
      "Latitude": "37.215672",
      "Longitude": "-93.313645",
      "Accuracy": "0.9",
      "Score": "range_interpolation",
      "AccuracyType": null
    },
    "Tags": [
      "Have Children",
      "Married Woman",
      "Age 30-49",
      "Single Man",
      "Age 13-17",
      "Current Alcohol Use"
    ]
  },
  {
    "Resource": {
      "ID": "33224",
      "Name": "Consumer Credit Counseling Service of Springfield, Missouri, Inc. (CCCS)",
      "Address1": "1515 South Glenstone Ave.",
      "Address2": "P.O. Box 10266",
      "city": "Springfield",
      "State": "MO",
      "Zip": "65808",
      "County": "GREENE COUNTY",
      "Phone": "417-889-7474",
      "Fax": "417-881-7713",
      "TTY": "",
      "Tollfree": "1-800-882-0808",
      "Hotline": "",
      "Email": "",
      "Webpage": "www.shredyourdebt.org",
      "FacebookName": "CCCS of the Ozarks",
      "FacebookUrl": "https://www.facebook.com/CCCSoftheOzarks",
      "Twitter": "",
      "Services": "Provides one-on-one personal financial counseling; works out repayment arrangements with creditors; helps clients get relief from collector phone calls, over-limit fees and late fees with credit card companies and other unsecured debt; assists with budgeting, debt management plans and credit education; provides pre-filing bankruptcy counseling, pre-foreclosure housing counseling and mortgage delinquency counseling.",
      "Latitude": "37.187182",
      "Longitude": "-93.262406",
      "Accuracy": "1",
      "Score": "range_interpolation",
      "AccuracyType": null
    },
    "Tags": [
      "Have Children",
      "Married Woman",
      "Age 30-49",
      "Single Man",
      "Age 13-17",
      "Current Alcohol Use"
    ]
  },
  {
    "Resource": {
      "ID": "33229",
      "Name": "CASA of Southwest Missouri",
      "Address1": "1111 S. Glenstone Ave., Suite 2-100",
      "Address2": "",
      "city": "Springfield",
      "State": "MO",
      "Zip": "65804",
      "County": "GREENE COUNTY",
      "Phone": "417-864-6202",
      "Fax": "417-864-6280",
      "TTY": "",
      "Tollfree": "",
      "Hotline": "",
      "Email": "preiser@casaswmo.org",
      "Webpage": "www.casaswmo.org",
      "FacebookName": "CASA of Southwest Missouri",
      "FacebookUrl": "https://www.facebook.com/casaswmo?ref=hl",
      "Twitter": "",
      "Services": "Seeks out and supplies trained community volunteers appointed by the juvenile court to act as advocates for abused and neglected children.",
      "Latitude": "37.194319",
      "Longitude": "-93.262261",
      "Accuracy": "1",
      "Score": "range_interpolation",
      "AccuracyType": null
    },
    "Tags": [
      "Have Children",
      "Married Woman",
      "Age 30-49",
      "Single Man",
      "Age 13-17",
      "Current Alcohol Use"
    ]
  },
  {
    "Resource": {
      "ID": "33259",
      "Name": "Eldercare Transit Service",
      "Address1": "1461 E. Seminole St.",
      "Address2": "",
      "city": "Springfield",
      "State": "MO",
      "Zip": "65804",
      "County": "GREENE COUNTY",
      "Phone": "417-882-4243",
      "Fax": "417-882-3793",
      "TTY": "",
      "Tollfree": "",
      "Hotline": "",
      "Email": "daybreakonseminole@hotmail.com",
      "Webpage": "www.ccozarks.org",
      "FacebookName": "Daybreak Adult Day Care",
      "FacebookUrl": "https://www.facebook.com/pages/Daybreak-Adult-Day-Care/140140399351694",
      "Twitter": "",
      "Services": "Provides door-through-door, non-emergency medical transportation services benefiting elderly or disabled individuals. Part of Daybreak Adult Day Care.",
      "Latitude": "37.174646",
      "Longitude": "-93.269715",
      "Accuracy": "1",
      "Score": "range_interpolation",
      "AccuracyType": null
    },
    "Tags": [
      "Have Children",
      "Married Woman",
      "Age 30-49",
      "Single Man",
      "Age 13-17",
      "Current Alcohol Use"
    ]
  },
  {
    "Resource": {
      "ID": "33263",
      "Name": "Ozarks Area Community Action Corporation: Low-Income Home Energy Assistance Program (LIHEAP)",
      "Address1": "215 S. Barnes Ave.",
      "Address2": "",
      "city": "Springfield",
      "State": "MO",
      "Zip": "65802",
      "County": "GREENE COUNTY",
      "Phone": "417-862-4314",
      "Fax": "417-864-3499",
      "TTY": "417-864-3495",
      "Tollfree": "",
      "Hotline": "",
      "Email": "awingo@oacac-caa.org",
      "Webpage": "www.oacac-caa.org",
      "FacebookName": "OACAC Ozarks Area Community Action Corporation",
      "FacebookUrl": "https://www.facebook.com/pages/OACAC-Ozarks-Area-Community-Action-Corporation/223742965559",
      "Twitter": "@OzarksOACAC",
      "Services": "Assists low-income households having an energy-related crisis in paying heating/cooling bills; provides information and education on energy conservation. An OACAC program.",
      "Latitude": "37.208944",
      "Longitude": "-93.252829",
      "Accuracy": "1",
      "Score": "range_interpolation",
      "AccuracyType": null
    },
    "Tags": [
      "Have Children",
      "Married Woman",
      "Age 30-49",
      "Single Man",
      "Age 13-17",
      "Current Alcohol Use"
    ]
  },
  {
    "Resource": {
      "ID": "33289",
      "Name": "Ozarks Area Community Action Corporation: Foster Grandparent Program",
      "Address1": "215 S. Barnes Ave.",
      "Address2": "",
      "city": "Springfield",
      "State": "MO",
      "Zip": "65802",
      "County": "GREENE COUNTY",
      "Phone": "417-864-3420",
      "Fax": "417-873-3354",
      "TTY": "",
      "Tollfree": "1-866-380-4420",
      "Hotline": "",
      "Email": "dyoung@oacac-caa.org",
      "Webpage": "www.oacac-caa.org",
      "FacebookName": "OACAC Ozarks Area Community Action Corporation",
      "FacebookUrl": "https://www.facebook.com/pages/OACAC-Ozarks-Area-Community-Action-Corporation/223742965559",
      "Twitter": "@OzarksOACAC",
      "Services": "Provides low-income seniors (55 and older) the opportunity to help teachers with tutoring, therapy, developing motor skills and other classroom activities for physically, mentally and emotionally disabled children. An OACAC program.",
      "Latitude": "37.208944",
      "Longitude": "-93.252829",
      "Accuracy": "1",
      "Score": "range_interpolation",
      "AccuracyType": null
    },
    "Tags": [
      "Have Children",
      "Married Woman",
      "Age 30-49",
      "Single Man",
      "Age 13-17",
      "Current Alcohol Use"
    ]
  },
  {
    "Resource": {
      "ID": "33303",
      "Name": "Ozarks Technical Community College: Adult Education and Literacy",
      "Address1": "221 Graff Hall",
      "Address2": "725 E. Bob Barker Blvd.",
      "city": "Springfield",
      "State": "MO",
      "Zip": "65802",
      "County": "GREENE COUNTY",
      "Phone": "417-447-8860",
      "Fax": "417-447-8863",
      "TTY": "",
      "Tollfree": "",
      "Hotline": "",
      "Email": "ael@otc.edu",
      "Webpage": "www.otc.edu/adulteducation.php.",
      "FacebookName": "",
      "FacebookUrl": "",
      "Twitter": "",
      "Services": "Provides classes and tutoring in adult basic education and literacy, HSE test preparation and English as a Second Language.",
      "Latitude": "37.20745",
      "Longitude": "-93.354612",
      "Accuracy": "0.33",
      "Score": "place",
      "AccuracyType": null
    },
    "Tags": [
      "Have Children",
      "Married Woman",
      "Age 30-49",
      "Single Man",
      "Age 13-17",
      "Current Alcohol Use"
    ]
  },
  {
    "Resource": {
      "ID": "33312",
      "Name": "Grandparents United For Children's Rights of Missouri",
      "Address1": "424 E. Stanford St.",
      "Address2": "",
      "city": "Springfield",
      "State": "MO",
      "Zip": "65807",
      "County": "GREENE COUNTY",
      "Phone": "417-862-9862",
      "Fax": "",
      "TTY": "",
      "Tollfree": "",
      "Hotline": "",
      "Email": "",
      "Webpage": "",
      "FacebookName": "",
      "FacebookUrl": "",
      "Twitter": "",
      "Services": "Supports legislation dealing with visitation and other rights of grandparents.",
      "Latitude": "37.184809",
      "Longitude": "-93.295281",
      "Accuracy": "0.9",
      "Score": "range_interpolation",
      "AccuracyType": null
    },
    "Tags": [
      "Have Children",
      "Married Woman",
      "Age 30-49",
      "Single Man",
      "Age 13-17",
      "Current Alcohol Use"
    ]
  },
  {
    "Resource": {
      "ID": "33326",
      "Name": "Abilities First",
      "Address1": "1370 E. Primrose St., Suite A",
      "Address2": "",
      "city": "Springfield",
      "State": "MO",
      "Zip": "65804",
      "County": "GREENE COUNTY",
      "Phone": "417-886-0404",
      "Fax": "417-882-5400",
      "TTY": "",
      "Tollfree": "",
      "Hotline": "",
      "Email": "jan@abilitiesfirst.net",
      "Webpage": "www.abilitiesfirst.net",
      "FacebookName": "",
      "FacebookUrl": "",
      "Twitter": "",
      "Services": "Administers Greene County tax programs for persons with developmental disabilities.",
      "Latitude": "37.147726",
      "Longitude": "-93.272577",
      "Accuracy": "1",
      "Score": "range_interpolation",
      "AccuracyType": null
    },
    "Tags": [
      "Have Children",
      "Married Woman",
      "Age 30-49",
      "Single Man",
      "Age 13-17",
      "Current Alcohol Use"
    ]
  },
  {
    "Resource": {
      "ID": "33336",
      "Name": "State of Missouri: Department of Social Services -- Greene County Family Support Division",
      "Address1": "101 Park Central Square",
      "Address2": "",
      "city": "Springfield",
      "State": "MO",
      "Zip": "65806",
      "County": "GREENE COUNTY",
      "Phone": "417-895-6000",
      "Fax": "(417) 895-6080 /6098",
      "TTY": "",
      "Tollfree": "1-855-373-4636",
      "Hotline": "",
      "Email": "",
      "Webpage": "www.dss.mo.gov",
      "FacebookName": "",
      "FacebookUrl": "",
      "Twitter": "",
      "Services": "Determines eligibility for medical assistance (Mo HealthNet, Medicaid and MHABD for the Aged, Blind, and Disabled), Temporary Assistance (TANF), food stamps and daycare.",
      "Latitude": "37.208489",
      "Longitude": "-93.292184",
      "Accuracy": "1",
      "Score": "range_interpolation",
      "AccuracyType": null
    },
    "Tags": [
      "Have Children",
      "Married Woman",
      "Age 30-49",
      "Single Man",
      "Age 13-17",
      "Current Alcohol Use"
    ]
  },
  {
    "Resource": {
      "ID": "33347",
      "Name": "Ozarks Area Community Action Corporation: Greene County Center",
      "Address1": "560-A N. Stewart Ave.",
      "Address2": "",
      "city": "Springfield",
      "State": "MO",
      "Zip": "65802",
      "County": "GREENE COUNTY",
      "Phone": "417-447-0554",
      "Fax": "417-832-0303",
      "TTY": "",
      "Tollfree": "",
      "Hotline": "",
      "Email": "greene@oacac-caa.org",
      "Webpage": "www.oac.ac",
      "FacebookName": "OACAC Ozarks Area Community Action Corporation",
      "FacebookUrl": "https://www.facebook.com/pages/OACAC-Ozarks-Area-Community-Action-Corporation/223742965559?ref=br_tf",
      "Twitter": "@ozarksoacac",
      "Services": "Offers support in parenting skills, employment, personal development, household management and budgeting, health and nutrition and life skills. An OACAC program.",
      "Latitude": "37.213999",
      "Longitude": "-93.26017",
      "Accuracy": "0.8",
      "Score": "street_center",
      "AccuracyType": null
    },
    "Tags": [
      "Have Children",
      "Married Woman",
      "Age 30-49",
      "Single Man",
      "Age 13-17",
      "Current Alcohol Use"
    ]
  },
  {
    "Resource": {
      "ID": "33389",
      "Name": "Ozarks Area Community Action Corporation: Housing Assistance Program",
      "Address1": "215 S. Barnes Ave.",
      "Address2": "",
      "city": "Springfield",
      "State": "MO",
      "Zip": "65802",
      "County": "GREENE COUNTY",
      "Phone": "417-864-3444",
      "Fax": "417-873-3360",
      "TTY": "417-864-3445",
      "Tollfree": "",
      "Hotline": "",
      "Email": "housinginfo@oacac-caa.org",
      "Webpage": "www.oac.ac",
      "FacebookName": "OACAC Ozarks Area Community Action Corporation",
      "FacebookUrl": "https://www.facebook.com/pages/OACAC-Ozarks-Area-Community-Action-Corporation/223742965559",
      "Twitter": "@OzarksOACAC",
      "Services": "Services include Section 8 rental assistance funded by HUD to low-income families; also assists households with special needs who are homeless and/or disabled. An OACAC program.",
      "Latitude": "37.208944",
      "Longitude": "-93.252829",
      "Accuracy": "1",
      "Score": "range_interpolation",
      "AccuracyType": null
    },
    "Tags": [
      "Have Children",
      "Married Woman",
      "Age 30-49",
      "Single Man",
      "Age 13-17",
      "Current Alcohol Use"
    ]
  },
  {
    "Resource": {
      "ID": "33415",
      "Name": "Lakeland Behavioral Health System",
      "Address1": "440 S. Market Ave.",
      "Address2": "",
      "city": "Springfield",
      "State": "MO",
      "Zip": "65806",
      "County": "GREENE COUNTY",
      "Phone": "417-865-5581",
      "Fax": "417-865-5964",
      "TTY": "417-865-5223",
      "Tollfree": "1-800-432-1210",
      "Hotline": "",
      "Email": "neil.frost@yfcs.com",
      "Webpage": "www.lakelandbehavioralhealth.com",
      "FacebookName": "Lakeland Behavioral Health System",
      "FacebookUrl": "https://www.facebook.com/lakelandbehaivoralhealth?fref=ts",
      "Twitter": "",
      "Services": "Offers eight unique acute inpatient and residential programs to children and adolescents to assist families with their psychiatric needs. The acute care programs range from a few days to a few weeks and are very intensive in nature. The goal of acute services is to evaluate and address the crisis and transition the child or adolescent back into their home environment with supportive service. Residential programs assist older children, adolescents and young adults who have ongoing psychiatric issues and are unable to maintain and thrive in their home environment. Average lengths of stay can range from a few months to a year.",
      "Latitude": "37.206592",
      "Longitude": "-93.295387",
      "Accuracy": "1",
      "Score": "range_interpolation",
      "AccuracyType": null
    },
    "Tags": [
      "Have Children",
      "Married Woman",
      "Age 30-49",
      "Single Man",
      "Age 13-17",
      "Current Alcohol Use"
    ]
  },
  {
    "Resource": {
      "ID": "33433",
      "Name": "Lutheran Family and Children's Services of Missouri (LFCS)",
      "Address1": "2130 N. Glenstone Ave.",
      "Address2": "",
      "city": "Springfield",
      "State": "MO",
      "Zip": "65803",
      "County": "GREENE COUNTY",
      "Phone": "417-862-1972",
      "Fax": "417-862-3276",
      "TTY": "",
      "Tollfree": "1-866-326-LFCS",
      "Hotline": "",
      "Email": "lauraf@lfcs.org",
      "Webpage": "www.lfcsmo.org",
      "FacebookName": "Lutheran Family and Children's Services of Missouri-Southwest",
      "FacebookUrl": "https://www.facebook.com/LFCS.Southwest",
      "Twitter": "",
      "Services": "Provides pregnancy counseling for women and families facing an unplanned pregnancy; offers professional case management and counseling support through the baby's first year; offers option of adoption, if the family is interested, along with birth parent support groups; other services include adoption services for families who want to expand their family through domestic, international, or independent adoption, as well as foster parent training and support for families who want to adopt from the foster care system.",
      "Latitude": "37.23528",
      "Longitude": "-93.261015",
      "Accuracy": "1",
      "Score": "range_interpolation",
      "AccuracyType": null
    },
    "Tags": [
      "Have Children",
      "Married Woman",
      "Age 30-49",
      "Single Man",
      "Age 13-17",
      "Current Alcohol Use"
    ]
  },
  {
    "Resource": {
      "ID": "33439",
      "Name": "Mercy Marian Center",
      "Address1": "1845 S. Rogers",
      "Address2": "",
      "city": "Springfield",
      "State": "MO",
      "Zip": "65804",
      "County": "GREENE COUNTY",
      "Phone": "417-820-7447",
      "Fax": "417-820-3085",
      "TTY": "",
      "Tollfree": "1-866-785-7447",
      "Hotline": "",
      "Email": "sonya.kullmann@mercy.net",
      "Webpage": "www.mercy.net",
      "FacebookName": "",
      "FacebookUrl": "",
      "Twitter": "",
      "Services": "Provides in-patient psychiatric care and outpatient treatment programs for addiction recovery for adults.",
      "Latitude": "37.171309",
      "Longitude": "-93.272689",
      "Accuracy": "0.8",
      "Score": "street_center",
      "AccuracyType": null
    },
    "Tags": [
      "Have Children",
      "Married Woman",
      "Age 30-49",
      "Single Man",
      "Age 13-17",
      "Current Alcohol Use"
    ]
  },
  {
    "Resource": {
      "ID": "33455",
      "Name": "State of Missouri: Department of Natural Resources, Southwest Regional Office",
      "Address1": "2040 W. Woodland St.",
      "Address2": "",
      "city": "Springfield",
      "State": "MO",
      "Zip": "65807",
      "County": "GREENE COUNTY",
      "Phone": "417-891-4300",
      "Fax": "417-891-4399",
      "TTY": "",
      "Tollfree": "1-800-361-4827",
      "Hotline": "",
      "Email": "",
      "Webpage": "www.dnr.mo.gov",
      "FacebookName": "",
      "FacebookUrl": "",
      "Twitter": "",
      "Services": "Enforces state pollution control laws.",
      "Latitude": "37.16347",
      "Longitude": "-93.320953",
      "Accuracy": "1",
      "Score": "range_interpolation",
      "AccuracyType": null
    },
    "Tags": [
      "Have Children",
      "Married Woman",
      "Age 30-49",
      "Single Man",
      "Age 13-17",
      "Current Alcohol Use"
    ]
  },
  {
    "Resource": {
      "ID": "33456",
      "Name": "State of Missouri: Department of Social Services--Division of Youth Services",
      "Address1": "1735 W. Catalpa St., Suite B",
      "Address2": "",
      "city": "Springfield",
      "State": "MO",
      "Zip": "65807",
      "County": "GREENE COUNTY",
      "Phone": "417-895-6485",
      "Fax": "417-895-5853",
      "TTY": "",
      "Tollfree": "1-800-735-2466",
      "Hotline": "",
      "Email": "",
      "Webpage": "www.dss.mo.gov/dys",
      "FacebookName": "",
      "FacebookUrl": "",
      "Twitter": "",
      "Services": "Provides care and treatment for youth who have been committed to the Division by the State of Missouri's juvenile court system.",
      "Latitude": "37.193514",
      "Longitude": "-93.314679",
      "Accuracy": "1",
      "Score": "range_interpolation",
      "AccuracyType": null
    },
    "Tags": [
      "Have Children",
      "Married Woman",
      "Age 30-49",
      "Single Man",
      "Age 13-17",
      "Current Alcohol Use"
    ]
  },
  {
    "Resource": {
      "ID": "33459",
      "Name": "State of Missouri: Department of Labor and Industrial Relations--Division of Workers Compensation",
      "Address1": "1736 E. Sunshine St., Suite 610",
      "Address2": "",
      "city": "Springfield",
      "State": "MO",
      "Zip": "65804",
      "County": "GREENE COUNTY",
      "Phone": "417-888-4100",
      "Fax": "417-888-4105",
      "TTY": "",
      "Tollfree": "1-800-775-2667",
      "Hotline": "",
      "Email": "",
      "Webpage": "www.labor.mo.gov",
      "FacebookName": "",
      "FacebookUrl": "",
      "Twitter": "",
      "Services": "Adjudicates workers' compensation claims in Springfield, West Plains, Branson, Lebanon and surrounding counties.",
      "Latitude": "37.181669",
      "Longitude": "-93.263859",
      "Accuracy": "1",
      "Score": "range_interpolation",
      "AccuracyType": null
    },
    "Tags": [
      "Have Children",
      "Married Woman",
      "Age 30-49",
      "Single Man",
      "Age 13-17",
      "Current Alcohol Use"
    ]
  },
  {
    "Resource": {
      "ID": "33470",
      "Name": "State of Missouri: Veterans Commission",
      "Address1": "1410 S. Kansas Expressway, Room 115",
      "Address2": "",
      "city": "Springfield",
      "State": "MO",
      "Zip": "65807",
      "County": "GREENE COUNTY",
      "Phone": "417-895-6532",
      "Fax": "417-895-6533",
      "TTY": "",
      "Tollfree": "",
      "Hotline": "",
      "Email": "cathy.vonholt@mvc.dps.mo.gov",
      "Webpage": "www.mvc.dps.mo.gov",
      "FacebookName": "",
      "FacebookUrl": "",
      "Twitter": "",
      "Services": "Aids veterans or their dependents in filing for V.A. benefits.",
      "Latitude": "37.189621",
      "Longitude": "-93.317445",
      "Accuracy": "0.9",
      "Score": "range_interpolation",
      "AccuracyType": null
    },
    "Tags": [
      "Have Children",
      "Married Woman",
      "Age 30-49",
      "Single Man",
      "Age 13-17",
      "Current Alcohol Use"
    ]
  },
  {
    "Resource": {
      "ID": "33476",
      "Name": "Southwest Missouri Area of Narcotics Anonymous (SWMOANA)",
      "Address1": "P.O. Box 3902",
      "Address2": "",
      "city": "Springfield",
      "State": "MO",
      "Zip": "65801-3902",
      "County": "GREENE COUNTY",
      "Phone": "",
      "Fax": "",
      "TTY": "",
      "Tollfree": "",
      "Hotline": "1-855-866-7392",
      "Email": "",
      "Webpage": "www.na.org and www.swmoana.org",
      "FacebookName": "",
      "FacebookUrl": "",
      "Twitter": "",
      "Services": "A hotline for drug abuse; publishes list of Narcotics Anonymous meeting dates, times and locations.",
      "Latitude": "37.25807",
      "Longitude": "-93.343673",
      "Accuracy": "1",
      "Score": "place",
      "AccuracyType": null
    },
    "Tags": [
      "Have Children",
      "Married Woman",
      "Age 30-49",
      "Single Man",
      "Age 13-17",
      "Current Alcohol Use"
    ]
  },
  {
    "Resource": {
      "ID": "33491",
      "Name": "Veterans Coming Home Center",
      "Address1": "806 N. Jefferson Ave.",
      "Address2": "",
      "city": "Springfield",
      "State": "MO",
      "Zip": "65802",
      "County": "GREENE COUNTY",
      "Phone": "417-866-3363",
      "Fax": "417-866-3378",
      "TTY": "",
      "Tollfree": "",
      "Hotline": "",
      "Email": "",
      "Webpage": "",
      "FacebookName": "",
      "FacebookUrl": "",
      "Twitter": "",
      "Services": "Provides persons in need with free clothing, day shelter, food, beverage, laundry, showers and a place to rest. A division of New Life Evangelistic Center.",
      "Latitude": "37.21625",
      "Longitude": "-93.289288",
      "Accuracy": "1",
      "Score": "range_interpolation",
      "AccuracyType": null
    },
    "Tags": [
      "Have Children",
      "Married Woman",
      "Age 30-49",
      "Single Man",
      "Age 13-17",
      "Current Alcohol Use"
    ]
  },
  {
    "Resource": {
      "ID": "33493",
      "Name": "The Salvation Army: New Start Housing Program",
      "Address1": "1707 W. Chestnut Expressway",
      "Address2": "",
      "city": "Springfield",
      "State": "MO",
      "Zip": "65802-4279",
      "County": "GREENE COUNTY",
      "Phone": "417-862-5509",
      "Fax": "417-862-1135",
      "TTY": "",
      "Tollfree": "",
      "Hotline": "",
      "Email": "amanda_long@usc.salvationarmy.org",
      "Webpage": "www.usc.salvationarmy.org/springfield-mo",
      "FacebookName": "The Salvation Army - Springfield, MO",
      "FacebookUrl": "https://www.facebook.com/SalvationArmyOzarkArea",
      "Twitter": "",
      "Services": "Helps homeless families with children residing in shelters become self-sufficient by providing temporary housing and supportive services.",
      "Latitude": "37.214497",
      "Longitude": "-93.313716",
      "Accuracy": "1",
      "Score": "range_interpolation",
      "AccuracyType": null
    },
    "Tags": [
      "Have Children",
      "Married Woman",
      "Age 30-49",
      "Single Man",
      "Age 13-17",
      "Current Alcohol Use"
    ]
  },
  {
    "Resource": {
      "ID": "33514",
      "Name": "Ozarks Counseling Center",
      "Address1": "614 South Ave.",
      "Address2": "",
      "city": "Springfield",
      "State": "MO",
      "Zip": "65806",
      "County": "GREENE COUNTY",
      "Phone": "417-869-9011",
      "Fax": "417-889-6307",
      "TTY": "",
      "Tollfree": "",
      "Hotline": "",
      "Email": "occ@ozarkscounselingcenter.org",
      "Webpage": "www.ozarkscounselingcenter.org",
      "FacebookName": "",
      "FacebookUrl": "",
      "Twitter": "",
      "Services": "Provides outpatient counseling for individuals, families, and married couples; fees based on income. A United Way of the Ozarks partner agency.",
      "Latitude": "37.203723",
      "Longitude": "-93.292255",
      "Accuracy": "1",
      "Score": "range_interpolation",
      "AccuracyType": null
    },
    "Tags": [
      "Have Children",
      "Married Woman",
      "Age 30-49",
      "Single Man",
      "Age 13-17",
      "Current Alcohol Use"
    ]
  },
  {
    "Resource": {
      "ID": "33550",
      "Name": "Ozarks Technical Community College",
      "Address1": "1001 E. Chestnut Expressway",
      "Address2": "",
      "city": "Springfield",
      "State": "MO",
      "Zip": "65802",
      "County": "GREENE COUNTY",
      "Phone": "417-447-7500",
      "Fax": "",
      "TTY": "417-447-8195",
      "Tollfree": "",
      "Hotline": "",
      "Email": "ask@otc.edu",
      "Webpage": "www.otc.edu",
      "FacebookName": "Ozarks Technical Community College",
      "FacebookUrl": "https://www.facebook.com/ozarkstech",
      "Twitter": "@otcedu",
      "Services": "Promotes student learning through accessible, high quality, affordable workforce training, and technical and general education that is responsive to the educational needs of the community and its diverse constituencies.",
      "Latitude": "37.214609",
      "Longitude": "-93.303069",
      "Accuracy": "0.9",
      "Score": "range_interpolation",
      "AccuracyType": null
    },
    "Tags": [
      "Have Children",
      "Married Woman",
      "Age 30-49",
      "Single Man",
      "Age 13-17",
      "Current Alcohol Use"
    ]
  },
  {
    "Resource": {
      "ID": "33555",
      "Name": "Parenting Life Skills Center (PLSC) - A Great Circle Agency",
      "Address1": "600 S. Jefferson Ave.",
      "Address2": "",
      "city": "Springfield",
      "State": "MO",
      "Zip": "65806",
      "County": "GREENE COUNTY",
      "Phone": "417-831-9596",
      "Fax": "417-831-7423",
      "TTY": "",
      "Tollfree": "",
      "Hotline": "",
      "Email": "gary.johnson@great-circle.org",
      "Webpage": "www.greatcircle.org",
      "FacebookName": "",
      "FacebookUrl": "",
      "Twitter": "",
      "Services": "Serves families by teaching life skills through home visitations, and parent education in a caring, nurturing and accessible environment to promote self-worth and quality of life.",
      "Latitude": "37.204289",
      "Longitude": "-93.289899",
      "Accuracy": "1",
      "Score": "range_interpolation",
      "AccuracyType": null
    },
    "Tags": [
      "Have Children",
      "Married Woman",
      "Age 30-49",
      "Single Man",
      "Age 13-17",
      "Current Alcohol Use"
    ]
  },
  {
    "Resource": {
      "ID": "33556",
      "Name": "Springfield Public Schools: Parents As Teachers (PAT) /Early Childhood Education",
      "Address1": "1423 W. Atlantic St.",
      "Address2": "",
      "city": "Springfield",
      "State": "MO",
      "Zip": "65803",
      "County": "GREENE COUNTY",
      "Phone": "417-523-1160",
      "Fax": "417-523-1199",
      "TTY": "",
      "Tollfree": "",
      "Hotline": "",
      "Email": "mriley@spsmail.org",
      "Webpage": "www.springfieldpublicschoolsmo.org",
      "FacebookName": "Springfield MO Parents as Teachers",
      "FacebookUrl": "https://www.facebook.com/pages/Springfield-MO-Parents-As-Teachers/1414608762085397",
      "Twitter": "",
      "Services": "Offers information and support to parents of preschool children through home visits and group meetings.",
      "Latitude": "37.233683",
      "Longitude": "-93.308564",
      "Accuracy": "1",
      "Score": "range_interpolation",
      "AccuracyType": null
    },
    "Tags": [
      "Have Children",
      "Married Woman",
      "Age 30-49",
      "Single Man",
      "Age 13-17",
      "Current Alcohol Use"
    ]
  },
  {
    "Resource": {
      "ID": "33575",
      "Name": "Ashley House (formerly Regional Girls Shelter)",
      "Address1": "2740 E. Pythian St.",
      "Address2": "",
      "city": "Springfield",
      "State": "MO",
      "Zip": "65802",
      "County": "GREENE COUNTY",
      "Phone": "417-862-9634",
      "Fax": "417-865-6507",
      "TTY": "",
      "Tollfree": "",
      "Hotline": "",
      "Email": "info@care4kids.org",
      "Webpage": "www.pchas.org",
      "FacebookName": "",
      "FacebookUrl": "",
      "Twitter": "",
      "Services": "Provides residential care for abandoned, abused or neglected girls in the area, most of whom are in the custody of the Family Services Division.",
      "Latitude": "37.217601",
      "Longitude": "-93.240203",
      "Accuracy": "0.8",
      "Score": "range_interpolation",
      "AccuracyType": null
    },
    "Tags": [
      "Have Children",
      "Married Woman",
      "Age 30-49",
      "Single Man",
      "Age 13-17",
      "Current Alcohol Use"
    ]
  },
  {
    "Resource": {
      "ID": "33576",
      "Name": "Ashley House Auxiliary (formerly Regional Girls Shelter Auxiliary)",
      "Address1": "2740 E. Pythian St.",
      "Address2": "",
      "city": "Springfield",
      "State": "MO",
      "Zip": "65802",
      "County": "GREENE COUNTY",
      "Phone": "417-862-9634",
      "Fax": "417-865-6507",
      "TTY": "",
      "Tollfree": "",
      "Hotline": "",
      "Email": "info@care4kids.org",
      "Webpage": "www.pchas.org",
      "FacebookName": "",
      "FacebookUrl": "",
      "Twitter": "",
      "Services": "Supports Ashley House which provides residential care for abandoned, abused or neglected girls in the area.",
      "Latitude": "37.217601",
      "Longitude": "-93.240203",
      "Accuracy": "0.8",
      "Score": "range_interpolation",
      "AccuracyType": null
    },
    "Tags": [
      "Have Children",
      "Married Woman",
      "Age 30-49",
      "Single Man",
      "Age 13-17",
      "Current Alcohol Use"
    ]
  },
  {
    "Resource": {
      "ID": "33577",
      "Name": "State of Missouri: Department of Social Services -- Rehabilitation Services for the Blind (RSB)",
      "Address1": "149 Park Central Square, Room 640",
      "Address2": "",
      "city": "Springfield",
      "State": "MO",
      "Zip": "65806",
      "County": "GREENE COUNTY",
      "Phone": "417-895-6386",
      "Fax": "417-895-6392",
      "TTY": "",
      "Tollfree": "1-800-592-6004",
      "Hotline": "",
      "Email": "randy.custer@dss.mo.gov",
      "Webpage": "www.dss.mo.gov/fsd/rsb",
      "FacebookName": "",
      "FacebookUrl": "",
      "Twitter": "",
      "Services": "Provides job training, job placement, visual aids, independent living skills and daily living skills training.",
      "Latitude": "37.208859",
      "Longitude": "-93.292867",
      "Accuracy": "1",
      "Score": "range_interpolation",
      "AccuracyType": null
    },
    "Tags": [
      "Have Children",
      "Married Woman",
      "Age 30-49",
      "Single Man",
      "Age 13-17",
      "Current Alcohol Use"
    ]
  },
  {
    "Resource": {
      "ID": "33585",
      "Name": "Ozarks Commute (Regional Rideshare Program)",
      "Address1": "205 Park Central East, Suite 205",
      "Address2": "",
      "city": "Springfield",
      "State": "MO",
      "Zip": "65806",
      "County": "GREENE COUNTY",
      "Phone": "417-831-RIDE (7433)",
      "Fax": "417-862-6013",
      "TTY": "",
      "Tollfree": "",
      "Hotline": "",
      "Email": "help@ozarkstransportation.org",
      "Webpage": "www.ozarkscommute.com",
      "FacebookName": "Ozarks Transportation Organization",
      "FacebookUrl": "https://www.facebook.com/pages/Ozarks-Transportation-Organization/259683794058148",
      "Twitter": "@giveusyourinput",
      "Services": "Offers information on wise commuting choices that reduce traffic congestion, pollution, commuting stress and saves money; provides carpool matches on a map using custom schedules and driving routes.",
      "Latitude": "37.209114",
      "Longitude": "-93.292495",
      "Accuracy": "0.8",
      "Score": "range_interpolation",
      "AccuracyType": null
    },
    "Tags": [
      "Have Children",
      "Married Woman",
      "Age 30-49",
      "Single Man",
      "Age 13-17",
      "Current Alcohol Use"
    ]
  },
  {
    "Resource": {
      "ID": "33611",
      "Name": "United States: Social Security Administration -- Springfield Office",
      "Address1": "1570 W. Battlefield Road, Suite 100",
      "Address2": "",
      "city": "Springfield",
      "State": "MO",
      "Zip": "65807",
      "County": "GREENE COUNTY",
      "Phone": "1-877-850-7824",
      "Fax": "417-866-6571",
      "TTY": "1-800-325-0778",
      "Tollfree": "1-800-772-1213",
      "Hotline": "",
      "Email": "mo.fo.springfield@ssa.gov",
      "Webpage": "www.socialsecurity.gov",
      "FacebookName": "",
      "FacebookUrl": "",
      "Twitter": "",
      "Services": "Issues cards, assists in filing claims and maintains all records on Social Security.",
      "Latitude": "37.159966",
      "Longitude": "-93.3121",
      "Accuracy": "0.9",
      "Score": "range_interpolation",
      "AccuracyType": null
    },
    "Tags": [
      "Have Children",
      "Married Woman",
      "Age 30-49",
      "Single Man",
      "Age 13-17",
      "Current Alcohol Use"
    ]
  },
  {
    "Resource": {
      "ID": "33622",
      "Name": "Southwest Center for Independent Living",
      "Address1": "2864 S. Nettleton Ave.",
      "Address2": "",
      "city": "Springfield",
      "State": "MO",
      "Zip": "65807",
      "County": "GREENE COUNTY",
      "Phone": "417-886-1188",
      "Fax": "417-886-3619",
      "TTY": "417-886-1188",
      "Tollfree": "1-800-676-7245",
      "Hotline": "",
      "Email": "scil@swcil.org",
      "Webpage": "www.swcil.org",
      "FacebookName": "Southwest Center for Independent Living",
      "FacebookUrl": "https://www.facebook.com/southwestcenterforindependentliving",
      "Twitter": "@swcil_sgf",
      "Services": "Provides services, advocacy, and resources for people with any disability in southwest Missouri; promotes a barrier-free environment for all disabilities through public education and advocacy for social change, and provides a full range of independent living services.",
      "Latitude": "37.161844",
      "Longitude": "-93.312274",
      "Accuracy": "1",
      "Score": "range_interpolation",
      "AccuracyType": null
    },
    "Tags": [
      "Have Children",
      "Married Woman",
      "Age 30-49",
      "Single Man",
      "Age 13-17",
      "Current Alcohol Use"
    ]
  },
  {
    "Resource": {
      "ID": "33634",
      "Name": "Southwest Missouri Office on Aging (SWMOA)",
      "Address1": "1735 S. Fort Ave.",
      "Address2": "",
      "city": "Springfield",
      "State": "MO",
      "Zip": "65807",
      "County": "GREENE COUNTY",
      "Phone": "417-862-0762",
      "Fax": "417-865-2683",
      "TTY": "",
      "Tollfree": "1-800-497-0822",
      "Hotline": "",
      "Email": "janice@swmoa.com",
      "Webpage": "www.swmoa.com",
      "FacebookName": "",
      "FacebookUrl": "",
      "Twitter": "",
      "Services": "Serves the older population by coordinating and funding programs that enhance their quality of life.",
      "Latitude": "37.183689",
      "Longitude": "-93.308897",
      "Accuracy": "1",
      "Score": "range_interpolation",
      "AccuracyType": null
    },
    "Tags": [
      "Have Children",
      "Married Woman",
      "Age 30-49",
      "Single Man",
      "Age 13-17",
      "Current Alcohol Use"
    ]
  },
  {
    "Resource": {
      "ID": "33699",
      "Name": "Planned Parenthood of Southwest Missouri",
      "Address1": "626 E. Battlefield Road",
      "Address2": "",
      "city": "Springfield",
      "State": "MO",
      "Zip": "65807",
      "County": "GREENE COUNTY",
      "Phone": "417-883-3800",
      "Fax": "417-883-3994",
      "TTY": "",
      "Tollfree": "",
      "Hotline": "",
      "Email": "ppswmo@gmail.com",
      "Webpage": "www.ppslr.org",
      "FacebookName": "Planned Parenthood of Southwest Missouri",
      "FacebookUrl": "https://www.facebook.com/ppswmo",
      "Twitter": "@ppswmo",
      "Services": "Provides health services that give individuals the power and the ability to take control of their lives, their health and their future. Works in public policy to empower individuals to take action to influence local, state and federal elected officials to protect and advance access to reproductive health services.",
      "Latitude": "37.159815",
      "Longitude": "-93.298975",
      "Accuracy": "0.9",
      "Score": "range_interpolation",
      "AccuracyType": null
    },
    "Tags": [
      "Have Children",
      "Married Woman",
      "Age 30-49",
      "Single Man",
      "Age 13-17",
      "Current Alcohol Use"
    ]
  },
  {
    "Resource": {
      "ID": "33732",
      "Name": "Mercy Family Resource Center",
      "Address1": "1235 E. Cherokee St., 1H",
      "Address2": "",
      "city": "Springfield",
      "State": "MO",
      "Zip": "65804",
      "County": "GREENE COUNTY",
      "Phone": "417-820-2327",
      "Fax": "417-820-7386",
      "TTY": "",
      "Tollfree": "",
      "Hotline": "",
      "Email": "mercy.net/patient-feedback",
      "Webpage": "www.mercy.net/springfieldmoms",
      "FacebookName": "Mercy",
      "FacebookUrl": "https://www.facebook.com/MercyHealth",
      "Twitter": "@MercySGF",
      "Services": "Offers a variety of interesting, fun and informative classes for expectant parents, siblings and grandparents; inpatient and outpatient lactation services and classes; pediatric nutrition services.",
      "Latitude": "37.17814",
      "Longitude": "-93.266419",
      "Accuracy": "0.8",
      "Score": "street_center",
      "AccuracyType": null
    },
    "Tags": [
      "Have Children",
      "Married Woman",
      "Age 30-49",
      "Single Man",
      "Age 13-17",
      "Current Alcohol Use"
    ]
  },
  {
    "Resource": {
      "ID": "33758",
      "Name": "Ozarks Area Community Action Corporation: Weatherization Program",
      "Address1": "2643 W. College Road",
      "Address2": "",
      "city": "Springfield",
      "State": "MO",
      "Zip": "65802",
      "County": "GREENE COUNTY",
      "Phone": "417-865-7797",
      "Fax": "417-865-7542",
      "TTY": "",
      "Tollfree": "",
      "Hotline": "",
      "Email": "tsteinmann@oacac-caa.org",
      "Webpage": "www.oacac-caa.org",
      "FacebookName": "OACAC Ozarks Area Community Action Corporation",
      "FacebookUrl": "https://www.facebook.com/pages/OACAC-Ozarks-Area-Community-Action-Corporation/223742965559",
      "Twitter": "@OzarksOACAC",
      "Services": "Provides free services to conserve energy for low-income homeowners and renters. Crews insulate and repair homes to make them more energy-efficient. An OACAC program.",
      "Latitude": "37.21124",
      "Longitude": "-93.329504",
      "Accuracy": "1",
      "Score": "range_interpolation",
      "AccuracyType": null
    },
    "Tags": [
      "Have Children",
      "Married Woman",
      "Age 30-49",
      "Single Man",
      "Age 13-17",
      "Current Alcohol Use"
    ]
  },
  {
    "Resource": {
      "ID": "33930",
      "Name": "Children's Miracle Network of CoxHealth",
      "Address1": "3525 S. National Ave., Suite 203",
      "Address2": "",
      "city": "Springfield",
      "State": "MO",
      "Zip": "65807",
      "County": "GREENE COUNTY",
      "Phone": "417-269-6853",
      "Fax": "417-269-8818",
      "TTY": "",
      "Tollfree": "",
      "Hotline": "",
      "Email": "tim.siebert@coxhealth.com",
      "Webpage": "www.coxhealthcmn.com",
      "FacebookName": "",
      "FacebookUrl": "",
      "Twitter": "",
      "Services": "Provides financial assistance to families who have children ages birth through 18 with special medical needs.",
      "Latitude": "37.150004",
      "Longitude": "-93.277896",
      "Accuracy": "1",
      "Score": "range_interpolation",
      "AccuracyType": null
    },
    "Tags": [
      "Have Children",
      "Married Woman",
      "Age 30-49",
      "Single Man",
      "Age 13-17",
      "Current Alcohol Use"
    ]
  },
  {
    "Resource": {
      "ID": "33961",
      "Name": "Adoptive Families of Southwest Missouri",
      "Address1": "4349 E. Kensington St.",
      "Address2": "",
      "city": "Springfield",
      "State": "MO",
      "Zip": "65809",
      "County": "GREENE COUNTY",
      "Phone": "417-882-2516",
      "Fax": "",
      "TTY": "",
      "Tollfree": "",
      "Hotline": "",
      "Email": "jgerard95@aol.com",
      "Webpage": "www.iafswmo.org",
      "FacebookName": "Adoptive Families of SWMO",
      "FacebookUrl": "https://www.facebook.com/groups/114235705277845/",
      "Twitter": "",
      "Services": "Support group for those in all stages of adoption.",
      "Latitude": "37.167566",
      "Longitude": "-93.204435",
      "Accuracy": "1",
      "Score": "range_interpolation",
      "AccuracyType": null
    },
    "Tags": [
      "Have Children",
      "Married Woman",
      "Age 30-49",
      "Single Man",
      "Age 13-17",
      "Current Alcohol Use"
    ]
  },
  {
    "Resource": {
      "ID": "34024",
      "Name": "Community Foundation of the Ozarks, Inc.",
      "Address1": "425 E. Trafficway",
      "Address2": "P.O. Box 8960",
      "city": "Springfield",
      "State": "MO",
      "Zip": "65801",
      "County": "GREENE COUNTY",
      "Phone": "417-864-6199",
      "Fax": "417-864-8344",
      "TTY": "",
      "Tollfree": "1-888-266-6815",
      "Hotline": "",
      "Email": "cfo@cfozarks.org",
      "Webpage": "www.cfozarks.org",
      "FacebookName": "Community Foundation of the Ozarks",
      "FacebookUrl": "https://www.facebook.com/cfozarks?ref=br_tf",
      "Twitter": "@cfozarks",
      "Services": "Supports community development through endowment building, community grant making, collaboration and public leadership.",
      "Latitude": "37.25807",
      "Longitude": "-93.343673",
      "Accuracy": "0.33",
      "Score": "place",
      "AccuracyType": null
    },
    "Tags": [
      "Have Children",
      "Married Woman",
      "Age 30-49",
      "Single Man",
      "Age 13-17",
      "Current Alcohol Use"
    ]
  },
  {
    "Resource": {
      "ID": "34025",
      "Name": "Community Partnership of the Ozarks",
      "Address1": "330 N. Jefferson Ave.",
      "Address2": "",
      "city": "Springfield",
      "State": "MO",
      "Zip": "65806",
      "County": "GREENE COUNTY",
      "Phone": "417-888-2020",
      "Fax": "417-888-2322",
      "TTY": "",
      "Tollfree": "",
      "Hotline": "",
      "Email": "info@commpartnership.org",
      "Webpage": "www.commpartnership.org",
      "FacebookName": "Community Partnership of the Ozarks",
      "FacebookUrl": "https://www.facebook.com/CPOzarks",
      "Twitter": "@cpozarks",
      "Services": "We partner with others to create the community you want to live in.",
      "Latitude": "37.207778",
      "Longitude": "-93.289778",
      "Accuracy": "1",
      "Score": "range_interpolation",
      "AccuracyType": null
    },
    "Tags": [
      "Have Children",
      "Married Woman",
      "Age 30-49",
      "Single Man",
      "Age 13-17",
      "Current Alcohol Use"
    ]
  },
  {
    "Resource": {
      "ID": "34042",
      "Name": "Good Samaritan Boys Ranch",
      "Address1": "5549 N. Highway K",
      "Address2": "P.O. Box 617",
      "city": "Brighton",
      "State": "MO",
      "Zip": "65617-0617",
      "County": "POLK COUNTY",
      "Phone": "417-376-2238",
      "Fax": "417-376-2014",
      "TTY": "",
      "Tollfree": "",
      "Hotline": "",
      "Email": "information@ranchlife.org",
      "Webpage": "www.ranchlife.org",
      "FacebookName": "Good Samaritan Boys Ranch",
      "FacebookUrl": "https://www.facebook.com/pages/Good-Samaritan-Boys-Ranch/159421550739446",
      "Twitter": "@boysranchmo",
      "Services": "State-licensed residential treatment facility for boys in the state of Missouri; also provides transitional living programs for young men and women ages 16-21 leaving the foster care system.",
      "Latitude": "37.462457",
      "Longitude": "-93.347992",
      "Accuracy": "0.33",
      "Score": "place",
      "AccuracyType": null
    },
    "Tags": [
      "Have Children",
      "Married Woman",
      "Age 30-49",
      "Single Man",
      "Age 13-17",
      "Current Alcohol Use"
    ]
  },
  {
    "Resource": {
      "ID": "34059",
      "Name": "Legal Services of Southern Missouri",
      "Address1": "809 N. Campbell Ave.",
      "Address2": "",
      "city": "Springfield",
      "State": "MO",
      "Zip": "65802",
      "County": "GREENE COUNTY",
      "Phone": "417-881-1397",
      "Fax": "417-881-2159",
      "TTY": "",
      "Tollfree": "1-800-444-4863",
      "Hotline": "",
      "Email": "media@lsosm.org",
      "Webpage": "www.lsosm.org",
      "FacebookName": "Legal Services of Southern Missouri",
      "FacebookUrl": "https://www.facebook.com/pages/Legal-Services-of-Southern-Missouri/138347666196533",
      "Twitter": "@LSOSM",
      "Services": "Provides free legal representation to low income clients in a number of civil legal problems; criminal defense representation is not provided; handles cases involving public benefits, housing, unemployment compensation, family, consumer education, employment, health and other matters.",
      "Latitude": "37.216141",
      "Longitude": "-93.294155",
      "Accuracy": "1",
      "Score": "range_interpolation",
      "AccuracyType": null
    },
    "Tags": [
      "Have Children",
      "Married Woman",
      "Age 30-49",
      "Single Man",
      "Age 13-17",
      "Current Alcohol Use"
    ]
  },
  {
    "Resource": {
      "ID": "34069",
      "Name": "State of Missouri: Department of Health and Senior Services, Southwest District",
      "Address1": "149 Park Central Square, Suite 116",
      "Address2": "P.O. Box 777",
      "city": "Springfield",
      "State": "MO",
      "Zip": "65801-0777",
      "County": "GREENE COUNTY",
      "Phone": "417-895-6900",
      "Fax": "417-895-6975",
      "TTY": "",
      "Tollfree": "",
      "Hotline": "",
      "Email": "",
      "Webpage": "www.health.mo.gov",
      "FacebookName": "",
      "FacebookUrl": "",
      "Twitter": "",
      "Services": "Provides support to area health departments and other public health partners and promotes quality of life and health for all Missourians.",
      "Latitude": "37.208859",
      "Longitude": "-93.292867",
      "Accuracy": "1",
      "Score": "range_interpolation",
      "AccuracyType": null
    },
    "Tags": [
      "Have Children",
      "Married Woman",
      "Age 30-49",
      "Single Man",
      "Age 13-17",
      "Current Alcohol Use"
    ]
  },
  {
    "Resource": {
      "ID": "34070",
      "Name": "State of Missouri: Department of Health and Senior Services - Division of Senior and Disability Services",
      "Address1": "149 Park Central Square, Suite 244",
      "Address2": "",
      "city": "Springfield",
      "State": "MO",
      "Zip": "65806",
      "County": "GREENE COUNTY",
      "Phone": "417-895-6433",
      "Fax": "417-895-6430",
      "TTY": "",
      "Tollfree": "",
      "Hotline": "1-800-392-0210 Elder Abuse & Neglect Hotline",
      "Email": "",
      "Webpage": "www.dhss.mo.gov",
      "FacebookName": "",
      "FacebookUrl": "",
      "Twitter": "",
      "Services": "Provides social services to the elderly and adult disabled through a variety of in-home support services, and direct and protective services.",
      "Latitude": "37.208859",
      "Longitude": "-93.292867",
      "Accuracy": "1",
      "Score": "range_interpolation",
      "AccuracyType": null
    },
    "Tags": [
      "Have Children",
      "Married Woman",
      "Age 30-49",
      "Single Man",
      "Age 13-17",
      "Current Alcohol Use"
    ]
  },
  {
    "Resource": {
      "ID": "34071",
      "Name": "State of Missouri: Department of Mental Health -- Division of Alcohol and Drug Abuse and Comprehensive Psychiatric Services",
      "Address1": "2600 E. 12th St.",
      "Address2": "",
      "city": "Kansas City",
      "State": "MO",
      "Zip": "64127",
      "County": "GREENE COUNTY",
      "Phone": "816-482-5770",
      "Fax": "816-482-5774",
      "TTY": "",
      "Tollfree": "",
      "Hotline": "",
      "Email": "",
      "Webpage": "www.dmh.mo.gov",
      "FacebookName": "",
      "FacebookUrl": "",
      "Twitter": "",
      "Services": "Provides information on programs for alcohol and drug abuse, prevention and treatment.",
      "Latitude": "39.098998",
      "Longitude": "-94.551413",
      "Accuracy": "1",
      "Score": "range_interpolation",
      "AccuracyType": null
    },
    "Tags": [
      "Have Children",
      "Married Woman",
      "Age 30-49",
      "Single Man",
      "Age 13-17",
      "Current Alcohol Use"
    ]
  },
  {
    "Resource": {
      "ID": "34095",
      "Name": "The Salvation Army: Main Office",
      "Address1": "1707 W. Chestnut Expressway",
      "Address2": "",
      "city": "Springfield",
      "State": "MO",
      "Zip": "65802-4279",
      "County": "GREENE COUNTY",
      "Phone": "417-862-5509",
      "Fax": "417-862-1135",
      "TTY": "",
      "Tollfree": "",
      "Hotline": "",
      "Email": "amanda_long@usc.salvationarmy.org",
      "Webpage": "www.usc.salvationarmy.org/springfield-mo",
      "FacebookName": "The Salvation Army - Springfield, MO",
      "FacebookUrl": "https://www.facebook.com/SalvationArmyOzarkArea",
      "Twitter": "",
      "Services": "Available assistance includes shelter and housing programs, an emergency food pantry, rental and prescription assistance, emergency disaster services, a senior citizens program, back-to-school assistance, Christmas assistance, a Community Thanksgiving Day meal, a Community Christmas Day meal, daily feeding programs, summer day camp and after-school programs for children, an emergency cold weather shelter, an emergency cooling center, family and youth activities, and general social service assistance.",
      "Latitude": "37.214497",
      "Longitude": "-93.313716",
      "Accuracy": "1",
      "Score": "range_interpolation",
      "AccuracyType": null
    },
    "Tags": [
      "Have Children",
      "Married Woman",
      "Age 30-49",
      "Single Man",
      "Age 13-17",
      "Current Alcohol Use"
    ]
  },
  {
    "Resource": {
      "ID": "34124",
      "Name": "Springfield Public Schools: Teen Parent Program",
      "Address1": "1423 W. Atlantic St.",
      "Address2": "",
      "city": "Springfield",
      "State": "MO",
      "Zip": "65803",
      "County": "GREENE COUNTY",
      "Phone": "417-523-1160",
      "Fax": "417-523-1199",
      "TTY": "",
      "Tollfree": "",
      "Hotline": "",
      "Email": "mriley@spsmail.org",
      "Webpage": "www.springfieldpublicschoolsmo.org",
      "FacebookName": "Springfield MO Parents as Teachers",
      "FacebookUrl": "https://www.facebook.com/pages/Springfield-MO-Parents-As-Teachers/1414608762085397",
      "Twitter": "",
      "Services": "Provides information on effective parenting and child development through personal home visits and monthly group meetings at each high school.",
      "Latitude": "37.233683",
      "Longitude": "-93.308564",
      "Accuracy": "1",
      "Score": "range_interpolation",
      "AccuracyType": null
    },
    "Tags": [
      "Have Children",
      "Married Woman",
      "Age 30-49",
      "Single Man",
      "Age 13-17",
      "Current Alcohol Use"
    ]
  },
  {
    "Resource": {
      "ID": "34134",
      "Name": "Springfield-Greene County Health Department: Women, Infants and Children Supplemental Nutrition Program (WIC)",
      "Address1": "440 E. Tampa St.",
      "Address2": "",
      "city": "Springfield",
      "State": "MO",
      "Zip": "65806",
      "County": "GREENE COUNTY",
      "Phone": "417-851-1580",
      "Fax": "417-863-8790",
      "TTY": "",
      "Tollfree": "",
      "Hotline": "",
      "Email": "jrandolph@springfieldmo.gov",
      "Webpage": "www.health.springfieldmo.gov/wic",
      "FacebookName": "",
      "FacebookUrl": "",
      "Twitter": "",
      "Services": "Provides nutrition education, health risk assessment, referral services, lactation services, and a supplemental food package for all eligible women, infants and children up to the age of five years.",
      "Latitude": "37.21361",
      "Longitude": "-93.288863",
      "Accuracy": "1",
      "Score": "range_interpolation",
      "AccuracyType": null
    },
    "Tags": [
      "Have Children",
      "Married Woman",
      "Age 30-49",
      "Single Man",
      "Age 13-17",
      "Current Alcohol Use"
    ]
  },
  {
    "Resource": {
      "ID": "35105",
      "Name": "SafeHaven of the Ozarks",
      "Address1": "925 E. Seminole St.",
      "Address2": "227 E. Sunshine St. Suite 120",
      "city": "Springfield",
      "State": "MO",
      "Zip": "65807",
      "County": "Greene",
      "Phone": "417-693-7533",
      "Fax": "",
      "TTY": "",
      "Tollfree": "",
      "Hotline": "",
      "Email": "caringassoc@aol.com",
      "Webpage": "www.SafeHavenoftheOzarks.com",
      "FacebookName": "",
      "FacebookUrl": "",
      "Twitter": "",
      "Services": "To prevent child abuse by providing a safe, home-like site for supervised visitation, as well as counseling services for children in foster care who have been neglected or abused. Support and linkage to community resources also are provided to grandparents who are raising grandchildren, through SafeHaven's Grandparents Parenting Again (GPA) program.",
      "Latitude": "37.175068",
      "Longitude": "-93.30216",
      "Accuracy": "1",
      "Score": "range_interpolation",
      "AccuracyType": null
    },
    "Tags": [
      "Have Children",
      "Married Woman",
      "Age 30-49",
      "Single Man",
      "Age 13-17",
      "Current Alcohol Use"
    ]
  },
  {
    "Resource": {
      "ID": "392002",
      "Name": "Jordan Valley Community Health Center--Medical",
      "Address1": "440 E. Tampa St.",
      "Address2": "",
      "city": "Springfield",
      "State": "MO",
      "Zip": "65806",
      "County": "",
      "Phone": "417-831-0150",
      "Fax": "417-831-0155 (medical records)",
      "TTY": "",
      "Tollfree": "",
      "Hotline": "",
      "Email": "sridinger@jordanvalley.org",
      "Webpage": "www.jordanvalley.org",
      "FacebookName": "",
      "FacebookUrl": "",
      "Twitter": "",
      "Services": "Weâ€™re proud to provide family medicine, gynecology/womenâ€™s health, prenatal care, pediatrics, primary and preventive health, immunizations, lab services, X-ray, behavioral health and more. Weâ€™ve partnered with the Springfield-Greene County WIC program to make these services and more available to our patients under one roof.",
      "Latitude": "37.21361",
      "Longitude": "-93.288863",
      "Accuracy": "1",
      "Score": "range_interpolation",
      "AccuracyType": null
    },
    "Tags": [
      "Have Children",
      "Married Woman",
      "Age 30-49",
      "Single Man",
      "Age 13-17",
      "Current Alcohol Use"
    ]
  },
  {
    "Resource": {
      "ID": "39348",
      "Name": "Ozarks Area Community Action Corporation: Head Start",
      "Address1": "215 S. Barnes Ave.",
      "Address2": "",
      "city": "Springfield",
      "State": "MO",
      "Zip": "65802",
      "County": "GREENE COUNTY",
      "Phone": "417-864-3430",
      "Fax": "417-864-3449",
      "TTY": "417-864-3495",
      "Tollfree": "1-866-282-3430",
      "Hotline": "",
      "Email": "tdickey@oacac-caa.org",
      "Webpage": "www.oacac-caa.org",
      "FacebookName": "OACAC Ozarks Area Community Action Corporation",
      "FacebookUrl": "https://www.facebook.com/pages/OACAC-Ozarks-Area-Community-Action-Corporation/223742965559",
      "Twitter": "@OzarksOACAC",
      "Services": "Provides a preschool learning experience and medical and dental care for children from birth to age 5 from income-eligible families. An OACAC program.",
      "Latitude": "37.208944",
      "Longitude": "-93.252829",
      "Accuracy": "1",
      "Score": "range_interpolation",
      "AccuracyType": null
    },
    "Tags": [
      "Have Children",
      "Married Woman",
      "Age 30-49",
      "Single Man",
      "Age 13-17",
      "Current Alcohol Use"
    ]
  },
  {
    "Resource": {
      "ID": "3993883",
      "Name": "Safe Kids Springfield",
      "Address1": "1570 W. Battlefield Road, Suite 110",
      "Address2": "",
      "city": "Springfield",
      "State": "MO",
      "Zip": "65807",
      "County": "",
      "Phone": "417-820-6671",
      "Fax": "417-820-7227",
      "TTY": "",
      "Tollfree": "",
      "Hotline": "417-820-7233",
      "Email": "info@safekidsspringfield.org",
      "Webpage": "www.safekidsspringfield.org",
      "FacebookName": "Safe Kids Springfield",
      "FacebookUrl": "https://www.facebook.com/safekidsspringfield",
      "Twitter": "",
      "Services": "Provides safety and injury prevention programs for children and their families to reduce unintentional deaths and injuries.",
      "Latitude": "37.159966",
      "Longitude": "-93.3121",
      "Accuracy": "0.9",
      "Score": "range_interpolation",
      "AccuracyType": null
    },
    "Tags": [
      "Have Children",
      "Married Woman",
      "Age 30-49",
      "Single Man",
      "Age 13-17",
      "Current Alcohol Use"
    ]
  },
  {
    "Resource": {
      "ID": "41940",
      "Name": "Missouri Career Center",
      "Address1": "2900 E. Sunshine",
      "Address2": "",
      "city": "Springfield",
      "State": "MO",
      "Zip": "65804",
      "County": "GREENE COUNTY",
      "Phone": "417-887-4343",
      "Fax": "417-888-4076",
      "TTY": "1-800-735-2966",
      "Tollfree": "1-800-562-7284 (1-800-JOB PATH)",
      "Hotline": "",
      "Email": "springfield@ded.mo.gov",
      "Webpage": "www.springfieldmo.gov/careercenter",
      "FacebookName": "Missouri Career Center â€“ Ozark Region",
      "FacebookUrl": "https://www.facebook.com/SGFCareerCenter",
      "Twitter": "SGFCareerCenter",
      "Services": "Provides employment and training services for job seekers, and job matching and labor market information for businesses.",
      "Latitude": "37.1805",
      "Longitude": "-93.236859",
      "Accuracy": "1",
      "Score": "range_interpolation",
      "AccuracyType": null
    },
    "Tags": [
      "Have Children",
      "Married Woman",
      "Age 30-49",
      "Single Man",
      "Age 13-17",
      "Current Alcohol Use"
    ]
  },
  {
    "Resource": {
      "ID": "48496",
      "Name": "Rare Breed Youth Services",
      "Address1": "301 N. Main",
      "Address2": "",
      "city": "Springfield",
      "State": "MO",
      "Zip": "65806",
      "County": "GREENE COUNTY",
      "Phone": "417-865-6400",
      "Fax": "417-865-6409",
      "TTY": "",
      "Tollfree": "",
      "Hotline": "417-837-1572",
      "Email": "rarebreed@thekitcheninc.org",
      "Webpage": "www.therarebreed.com",
      "FacebookName": "",
      "FacebookUrl": "",
      "Twitter": "",
      "Services": "Provides a wide range of outreach services designed by and for youth. Professional staff supervise youth who can access television, stereo, a computer lab, games, arts and crafts, billiards, foosball and a message board; provides access to emergency shelter, survival aid, individual assessments, and information on goal-setting skills, prevention and education activities, information and referral, case management advocacy and crisis intervention. A Kitchen, Inc. program.",
      "Latitude": "37.207809",
      "Longitude": "-93.297029",
      "Accuracy": "1",
      "Score": "range_interpolation",
      "AccuracyType": null
    },
    "Tags": [
      "Have Children",
      "Married Woman",
      "Age 30-49",
      "Single Man",
      "Age 13-17",
      "Current Alcohol Use"
    ]
  },
  {
    "Resource": {
      "ID": "50441",
      "Name": "Least of These, Inc.",
      "Address1": "511 W. Kathryn",
      "Address2": "P.O. Box 808",
      "city": "Nixa",
      "State": "MO",
      "Zip": "65714",
      "County": "CHRISTIAN COUNTY",
      "Phone": "417-724-2500",
      "Fax": "417-724-9788",
      "TTY": "",
      "Tollfree": "",
      "Hotline": "",
      "Email": "leastofthesefoodpantry@gmail.com",
      "Webpage": "www.leastofthesefoodpantry.com",
      "FacebookName": "Least of These, Inc.",
      "FacebookUrl": "https://www.facebook.com/LeastofThese",
      "Twitter": "@Ccfoodpantry",
      "Services": "Provides a food pantry that distributes perishable and non-perishable foods; also provides clothing and household items, (not furniture or appliances,) as available, to residents of Christian County.",
      "Latitude": "37.04339",
      "Longitude": "-93.29435",
      "Accuracy": "0.22",
      "Score": "place",
      "AccuracyType": null
    },
    "Tags": [
      "Have Children",
      "Married Woman",
      "Age 30-49",
      "Single Man",
      "Age 13-17",
      "Current Alcohol Use"
    ]
  },
  {
    "Resource": {
      "ID": "52553",
      "Name": "Ozarks Area Community Action Corporation (OACAC)",
      "Address1": "215 S. Barnes Ave.",
      "Address2": "",
      "city": "Springfield",
      "State": "MO",
      "Zip": "65802",
      "County": "GREENE COUNTY",
      "Phone": "417-862-4314",
      "Fax": "417-864-3499",
      "TTY": "417-864-3495",
      "Tollfree": "",
      "Hotline": "",
      "Email": "dmagnifico@oacac-caa.org",
      "Webpage": "www.oac.ac",
      "FacebookName": "OACAC Ozarks Area Community Action Corporation",
      "FacebookUrl": "https://www.facebook.com/pages/OACAC-Ozarks-Area-Community-Action-Corporation/223742965559",
      "Twitter": "@ozarksoacac",
      "Services": "Provides a wide range of services to assist low-income families in achieving self-sufficiency. Programs include Family Planning and Family Supportive/Referral Services (Neighborhood Centers,) Foster Grandparents, Head Start, Housing Assistance, Low-Income Home Energy Assistance Program, and Weatherization.",
      "Latitude": "37.208944",
      "Longitude": "-93.252829",
      "Accuracy": "1",
      "Score": "range_interpolation",
      "AccuracyType": null
    },
    "Tags": [
      "Have Children",
      "Married Woman",
      "Age 30-49",
      "Single Man",
      "Age 13-17",
      "Current Alcohol Use"
    ]
  },
  {
    "Resource": {
      "ID": "52658",
      "Name": "Great Circle (formerly Boys and Girls Town of Missouri)",
      "Address1": "1212 W. Lombard St.",
      "Address2": "",
      "city": "Springfield",
      "State": "MO",
      "Zip": "65806",
      "County": "GREENE COUNTY",
      "Phone": "417-865-1646",
      "Fax": "417-866-1483",
      "TTY": "",
      "Tollfree": "",
      "Hotline": "",
      "Email": "maryjane.kelly@great-circle.org",
      "Webpage": "www.greatcircle.org",
      "FacebookName": "Great Circle",
      "FacebookUrl": "https://www.facebook.com/greatcircleorg",
      "Twitter": "@GreatCircleOrg",
      "Services": "Strives to improve the lives of children with emotional and behavioral problems through superior, family-focused, community based services.",
      "Latitude": "37.198819",
      "Longitude": "-93.30706",
      "Accuracy": "0.9",
      "Score": "range_interpolation",
      "AccuracyType": null
    },
    "Tags": [
      "Have Children",
      "Married Woman",
      "Age 30-49",
      "Single Man",
      "Age 13-17",
      "Current Alcohol Use"
    ]
  },
  {
    "Resource": {
      "ID": "52703",
      "Name": "Ozarks Area Community Action Corporation: Family Planning",
      "Address1": "215 S. Barnes Ave.",
      "Address2": "",
      "city": "Springfield",
      "State": "MO",
      "Zip": "65802",
      "County": "GREENE COUNTY",
      "Phone": "417-864-3410",
      "Fax": "417-864-3416",
      "TTY": "",
      "Tollfree": "",
      "Hotline": "",
      "Email": "danthony@oacac-caa.org",
      "Webpage": "oac.ac",
      "FacebookName": "OACAC Family Planning",
      "FacebookUrl": "https://www.facebook.com/pages/OACAC-Family-Planning/118893574803131?ref=search&sid=1643932868.48855002..1",
      "Twitter": "",
      "Services": "Provides individuals with family planning, low-cost contraceptive methods and reproductive health services including pregnancy testing, pap smears, breast exams and STD testing and treatment, throughout the southwest Missouri area. An OACAC program.",
      "Latitude": "37.208944",
      "Longitude": "-93.252829",
      "Accuracy": "1",
      "Score": "range_interpolation",
      "AccuracyType": null
    },
    "Tags": [
      "Have Children",
      "Married Woman",
      "Age 30-49",
      "Single Man",
      "Age 13-17",
      "Current Alcohol Use"
    ]
  },
  {
    "Resource": {
      "ID": "52877",
      "Name": "City of Springfield: Mayor's Commission for Children",
      "Address1": "227 E. Chestnut Expressway",
      "Address2": "",
      "city": "Springfield",
      "State": "MO",
      "Zip": "65802",
      "County": "GREENE COUNTY",
      "Phone": "417-864-1656",
      "Fax": "417-864-1099",
      "TTY": "",
      "Tollfree": "",
      "Hotline": "",
      "Email": "dbredfel@springfieldmo.gov",
      "Webpage": "www.redwagonkids.net",
      "FacebookName": "City of Springfield, MO - Connect with SGF",
      "FacebookUrl": "https://www.facebook.com/CityofSGF",
      "Twitter": "@CityofSGF",
      "Services": "Educates and mobilizes the community on children's issues, especially early childhood education.",
      "Latitude": "37.215651",
      "Longitude": "-93.292047",
      "Accuracy": "1",
      "Score": "range_interpolation",
      "AccuracyType": null
    },
    "Tags": [
      "Have Children",
      "Married Woman",
      "Age 30-49",
      "Single Man",
      "Age 13-17",
      "Current Alcohol Use"
    ]
  },
  {
    "Resource": {
      "ID": "52879",
      "Name": "Haven of the Ozarks, Inc.",
      "Address1": "9617 Farm Road 2190",
      "Address2": "",
      "city": "Washburn",
      "State": "MO",
      "Zip": "65772",
      "County": "BARRY COUNTY",
      "Phone": "417-835-3647",
      "Fax": "417-835-0029",
      "TTY": "",
      "Tollfree": "",
      "Hotline": "",
      "Email": "thehaven@centurylink.net",
      "Webpage": "www.thehaven.petfinder.org",
      "FacebookName": "Haven of the Ozarks Animal Sanctuary",
      "FacebookUrl": "https://www.facebook.com/HavenoftheOzarks",
      "Twitter": "@havenofozarks",
      "Services": "A \"no-kill\" facility that provides long-term care to dogs and cats until adoption and educates the public on humane treatment of animals and the importance and impact of spaying and neutering dogs and cats.",
      "Latitude": "36.640113",
      "Longitude": "-93.93363",
      "Accuracy": "0.8",
      "Score": "street_center",
      "AccuracyType": null
    },
    "Tags": [
      "Have Children",
      "Married Woman",
      "Age 30-49",
      "Single Man",
      "Age 13-17",
      "Current Alcohol Use"
    ]
  },
  {
    "Resource": {
      "ID": "52897",
      "Name": "Mercy Clinic Behavioral Health - Lark",
      "Address1": "1312 E. Lark St.",
      "Address2": "",
      "city": "Springfield",
      "State": "MO",
      "Zip": "65804",
      "County": "GREENE COUNTY",
      "Phone": "417-820-3707",
      "Fax": "417-820-7954",
      "TTY": "",
      "Tollfree": "",
      "Hotline": "",
      "Email": "",
      "Webpage": "www.mercy.net",
      "FacebookName": "",
      "FacebookUrl": "",
      "Twitter": "",
      "Services": "Provides out-patient psychiatric care for Mercy Hospital Springfield.",
      "Latitude": "37.135557",
      "Longitude": "-93.27426",
      "Accuracy": "1",
      "Score": "range_interpolation",
      "AccuracyType": null
    },
    "Tags": [
      "Have Children",
      "Married Woman",
      "Age 30-49",
      "Single Man",
      "Age 13-17",
      "Current Alcohol Use"
    ]
  },
  {
    "Resource": {
      "ID": "52913",
      "Name": "Newborns In Need, Southwestern Missouri Chapter",
      "Address1": "6082 Lake Freddie Road",
      "Address2": "",
      "city": "Hartville",
      "State": "MO",
      "Zip": "65667",
      "County": "WRIGHT COUNTY",
      "Phone": "1-417-741-7516",
      "Fax": "",
      "TTY": "",
      "Tollfree": "",
      "Hotline": "",
      "Email": "shullski@centurylink.net",
      "Webpage": "www.newbornsinneed.org/swmo",
      "FacebookName": "Newborns in Need, Inc - Southwest Missouri Chapter",
      "FacebookUrl": "https://www.facebook.com/NewbornsinNeedSWMO",
      "Twitter": "",
      "Services": "Provides assistance to sick and needy premature and newborn babies through handmade baby clothing and bedding, and by fundraising to purchase other items.",
      "Latitude": "37.277436",
      "Longitude": "-92.527268",
      "Accuracy": "1",
      "Score": "range_interpolation",
      "AccuracyType": null
    },
    "Tags": [
      "Have Children",
      "Married Woman",
      "Age 30-49",
      "Single Man",
      "Age 13-17",
      "Current Alcohol Use"
    ]
  },
  {
    "Resource": {
      "ID": "52924",
      "Name": "Pregnancy Care Center",
      "Address1": "1342 E. Primrose St., Suite C",
      "Address2": "",
      "city": "Springfield",
      "State": "MO",
      "Zip": "65804",
      "County": "GREENE COUNTY",
      "Phone": "417-877-0800",
      "Fax": "417-877-0830",
      "TTY": "",
      "Tollfree": "1-866-677-0800",
      "Hotline": "",
      "Email": "info@417choices.com",
      "Webpage": "417choices.com",
      "FacebookName": "Springfield Pregnancy Care Center",
      "FacebookUrl": "https://www.facebook.com/SpringfieldPregnancyCareCenter",
      "Twitter": "@SpringfieldPCC",
      "Services": "Provides pregnancy testing and confirmation of pregnancy through ultrasound. Other services include ongoing mentoring, parenting and adoption preparation, labor and birth classes, relationship enhancement workshops, and nutrition and lactation consultation.",
      "Latitude": "37.147747",
      "Longitude": "-93.27485",
      "Accuracy": "1",
      "Score": "range_interpolation",
      "AccuracyType": null
    },
    "Tags": [
      "Have Children",
      "Married Woman",
      "Age 30-49",
      "Single Man",
      "Age 13-17",
      "Current Alcohol Use"
    ]
  },
  {
    "Resource": {
      "ID": "52925",
      "Name": "Edge Community Technology Center",
      "Address1": "Springfield-Greene County Library District: Midtown Carnegie Branch Library",
      "Address2": "397 E. Central St.",
      "city": "Springfield",
      "State": "MO",
      "Zip": "65802",
      "County": "GREENE COUNTY",
      "Phone": "417-837-5011",
      "Fax": "417-866-1259",
      "TTY": "",
      "Tollfree": "",
      "Hotline": "",
      "Email": "askalibrarian@thelibrary.org",
      "Webpage": "thelibrary.org",
      "FacebookName": "",
      "FacebookUrl": "",
      "Twitter": "",
      "Services": "Offers lifelong learning opportunities in computer software and Internet training for adults. Sessions are free and open to the public. Part of the Springfield-Greene County Library District.",
      "Latitude": "37.048716",
      "Longitude": "-93.049571",
      "Accuracy": "1",
      "Score": "street_center",
      "AccuracyType": null
    },
    "Tags": [
      "Have Children",
      "Married Woman",
      "Age 30-49",
      "Single Man",
      "Age 13-17",
      "Current Alcohol Use"
    ]
  },
  {
    "Resource": {
      "ID": "52942",
      "Name": "Ronald McDonald House CharitiesÂ® of the Ozarks, Inc.",
      "Address1": "949 E. Primrose St.",
      "Address2": "",
      "city": "Springfield",
      "State": "MO",
      "Zip": "65807",
      "County": "GREENE COUNTY",
      "Phone": "417-875-3503",
      "Fax": "417-882-7206",
      "TTY": "",
      "Tollfree": "",
      "Hotline": "",
      "Email": "bonnie.keller@RMHCOzarks.org",
      "Webpage": "www.RMHCOzarks.org",
      "FacebookName": "Ronald McDonald House Charities of the Ozarks",
      "FacebookUrl": "https://www.facebook.com/RMHC.Ozarks",
      "Twitter": "",
      "Services": "Provides lodging, hope and comfort for families of seriously ill children receiving medical care at two Ronald McDonald Houses in Springfield; provides dental treatment and prevention education for at-risk children who qualify for free/reduced school lunches on the Ronald McDonald Care Mobile (also known at the Tooth Truck).",
      "Latitude": "37.146969",
      "Longitude": "-93.281665",
      "Accuracy": "0.7",
      "Score": "range_interpolation",
      "AccuracyType": null
    },
    "Tags": [
      "Have Children",
      "Married Woman",
      "Age 30-49",
      "Single Man",
      "Age 13-17",
      "Current Alcohol Use"
    ]
  },
  {
    "Resource": {
      "ID": "53034",
      "Name": "Ambassadors for Children",
      "Address1": "500 W. Battlefield Ave., Suite B",
      "Address2": "",
      "city": "Springfield",
      "State": "MO",
      "Zip": "65807",
      "County": "GREENE COUNTY",
      "Phone": "417-708-0565",
      "Fax": "417-708-0566",
      "TTY": "",
      "Tollfree": "",
      "Hotline": "",
      "Email": "dfay@ccozarks.org",
      "Webpage": "www.ccozarks.org; www.ambassadors4children.org",
      "FacebookName": "Ambassadors for Children",
      "FacebookUrl": "https://www.facebook.com/ambassadorsforchildren",
      "Twitter": "",
      "Services": "Addresses the needs of abused and neglected children through the provision of new clothing, tutoring, hygiene items and self-esteem enhancing activities for foster children; matches child protective caseworkers with community groups. Provides Christmas presents for kids in foster care, and operates Prom Closet. An operating agency of the Council of Churches of the Ozarks.",
      "Latitude": "37.159796",
      "Longitude": "-93.297133",
      "Accuracy": "1",
      "Score": "range_interpolation",
      "AccuracyType": null
    },
    "Tags": [
      "Have Children",
      "Married Woman",
      "Age 30-49",
      "Single Man",
      "Age 13-17",
      "Current Alcohol Use"
    ]
  },
  {
    "Resource": {
      "ID": "53035",
      "Name": "State of Missouri: Family Support Division -- Child Support Enforcement",
      "Address1": "1410 S. Kansas Expressway, Suite 100",
      "Address2": "",
      "city": "Springfield",
      "State": "MO",
      "Zip": "65807",
      "County": "GREENE COUNTY",
      "Phone": "417-895-6338",
      "Fax": "417-895-6337",
      "TTY": "",
      "Tollfree": "",
      "Hotline": "",
      "Email": "",
      "Webpage": "www.dss.mo.gov/cse",
      "FacebookName": "",
      "FacebookUrl": "",
      "Twitter": "",
      "Services": "Enforces the payment of child support, establishes child support orders, establishes paternity and makes order modifications.",
      "Latitude": "37.189621",
      "Longitude": "-93.317445",
      "Accuracy": "0.9",
      "Score": "range_interpolation",
      "AccuracyType": null
    },
    "Tags": [
      "Have Children",
      "Married Woman",
      "Age 30-49",
      "Single Man",
      "Age 13-17",
      "Current Alcohol Use"
    ]
  },
  {
    "Resource": {
      "ID": "53205",
      "Name": "Educare",
      "Address1": "330 N. Jefferson Ave.",
      "Address2": "",
      "city": "Springfield",
      "State": "MO",
      "Zip": "65806",
      "County": "GREENE COUNTY",
      "Phone": "417-888-2020",
      "Fax": "417-888-2322",
      "TTY": "",
      "Tollfree": "",
      "Hotline": "",
      "Email": "",
      "Webpage": "www.commpartnership.org",
      "FacebookName": "",
      "FacebookUrl": "",
      "Twitter": "",
      "Services": "Provides training, coaching and support programs for unlicensed child care providers that serve families receiving DSS child care subsidy; a program of the Community Partnership of the Ozarks.",
      "Latitude": "37.207778",
      "Longitude": "-93.289778",
      "Accuracy": "1",
      "Score": "range_interpolation",
      "AccuracyType": null
    },
    "Tags": [
      "Have Children",
      "Married Woman",
      "Age 30-49",
      "Single Man",
      "Age 13-17",
      "Current Alcohol Use"
    ]
  },
  {
    "Resource": {
      "ID": "53627",
      "Name": "The Salvation Army: Harbor House",
      "Address1": "636 N. Boonville Ave.",
      "Address2": "",
      "city": "Springfield",
      "State": "MO",
      "Zip": "65806",
      "County": "GREENE COUNTY",
      "Phone": "417-831-3371",
      "Fax": "",
      "TTY": "",
      "Tollfree": "",
      "Hotline": "",
      "Email": "Dianna_Lewis@usc.salvationarmy.org",
      "Webpage": "www.usc.salvationarmy.org/springfield-mo",
      "FacebookName": "The Salvation Army - Springfield, MO",
      "FacebookUrl": "https://www.facebook.com/SalvationArmyOzarkArea",
      "Twitter": "",
      "Services": "Provides an opportunity for men struggling with addictions to re-establish themselves in the community through classes, counseling, and work experience and accountability, and a safe environment in which to give men a new start in life. Day Labor program also at this facility.",
      "Latitude": "37.214311",
      "Longitude": "-93.292195",
      "Accuracy": "1",
      "Score": "range_interpolation",
      "AccuracyType": null
    },
    "Tags": [
      "Have Children",
      "Married Woman",
      "Age 30-49",
      "Single Man",
      "Age 13-17",
      "Current Alcohol Use"
    ]
  },
  {
    "Resource": {
      "ID": "53642",
      "Name": "Convoy of Hope",
      "Address1": "330 S. Patterson Ave.",
      "Address2": "",
      "city": "Springfield",
      "State": "MO",
      "Zip": "65802",
      "County": "GREENE COUNTY",
      "Phone": "417-823-8998",
      "Fax": "417-823-8244",
      "TTY": "",
      "Tollfree": "1-800-988-0664",
      "Hotline": "",
      "Email": "info@convoyofhope.org",
      "Webpage": "www.convoyofhope.org",
      "FacebookName": "Convoy of Hope",
      "FacebookUrl": "https://www.facebook.com/convoyofhope?ref=bookmarks",
      "Twitter": "@ConvoyofHope",
      "Services": "A faith-based organization with a driving passion to feed the world through children's feeding initiatives, community outreaches, disaster response and partner resourcing.",
      "Latitude": "37.206785",
      "Longitude": "-93.248031",
      "Accuracy": "1",
      "Score": "range_interpolation",
      "AccuracyType": null
    },
    "Tags": [
      "Have Children",
      "Married Woman",
      "Age 30-49",
      "Single Man",
      "Age 13-17",
      "Current Alcohol Use"
    ]
  },
  {
    "Resource": {
      "ID": "53648",
      "Name": "State of Missouri: Department of Health and Senior Services, Section for Child Care Regulations",
      "Address1": "149 Park Central Square, Suite 116",
      "Address2": "",
      "city": "Springfield",
      "State": "MO",
      "Zip": "65806",
      "County": "GREENE COUNTY",
      "Phone": "417-895-6541",
      "Fax": "417-895-6994",
      "TTY": "",
      "Tollfree": "",
      "Hotline": "",
      "Email": "",
      "Webpage": "www.health.mo.gov",
      "FacebookName": "",
      "FacebookUrl": "",
      "Twitter": "",
      "Services": "Licenses and monitors child care facilities; provides technical assistance to applicants and licensed providers including review of building plans; conducts free group inquiry meetings for those interested in operating a day care; conducts complaint investigations.",
      "Latitude": "37.208859",
      "Longitude": "-93.292867",
      "Accuracy": "1",
      "Score": "range_interpolation",
      "AccuracyType": null
    },
    "Tags": [
      "Have Children",
      "Married Woman",
      "Age 30-49",
      "Single Man",
      "Age 13-17",
      "Current Alcohol Use"
    ]
  },
  {
    "Resource": {
      "ID": "53662",
      "Name": "Springfield-Greene County Health Department: Westside Public Health Center",
      "Address1": "660 S. Scenic Ave.",
      "Address2": "",
      "city": "Springfield",
      "State": "MO",
      "Zip": "65802",
      "County": "GREENE COUNTY",
      "Phone": "417-874-1220",
      "Fax": "417-874-1215",
      "TTY": "",
      "Tollfree": "",
      "Hotline": "",
      "Email": "health@springfieldmo.gov",
      "Webpage": "www.health.springfieldmo.gov",
      "FacebookName": "",
      "FacebookUrl": "",
      "Twitter": "",
      "Services": "Provides immunization services to the community from birth to adult. ",
      "Latitude": "37.2034",
      "Longitude": "-93.330592",
      "Accuracy": "1",
      "Score": "range_interpolation",
      "AccuracyType": null
    },
    "Tags": [
      "Have Children",
      "Married Woman",
      "Age 30-49",
      "Single Man",
      "Age 13-17",
      "Current Alcohol Use"
    ]
  },
  {
    "Resource": {
      "ID": "53669",
      "Name": "Springfield Victory Vintage Thrift Store",
      "Address1": "824 W. Commercial St.",
      "Address2": "",
      "city": "Springfield",
      "State": "MO",
      "Zip": "65803",
      "County": "GREENE COUNTY",
      "Phone": "417-864-2244",
      "Fax": "",
      "TTY": "",
      "Tollfree": "",
      "Hotline": "",
      "Email": "information@victorymission.com",
      "Webpage": "www.victorymission.com",
      "FacebookName": "",
      "FacebookUrl": "",
      "Twitter": "",
      "Services": "Sells used clothing, appliances and household items at a reasonable price; gives clothing to singles and families in need and other missionary groups.",
      "Latitude": "37.230211",
      "Longitude": "-93.281395",
      "Accuracy": "1",
      "Score": "range_interpolation",
      "AccuracyType": null
    },
    "Tags": [
      "Have Children",
      "Married Woman",
      "Age 30-49",
      "Single Man",
      "Age 13-17",
      "Current Alcohol Use"
    ]
  },
  {
    "Resource": {
      "ID": "53670",
      "Name": "The Salvation Army Superstore",
      "Address1": "2944 W. Chestnut Expressway",
      "Address2": "",
      "city": "Springfield",
      "State": "MO",
      "Zip": "65802-4633",
      "County": "GREENE COUNTY",
      "Phone": "417-865-1770",
      "Fax": "417-862-1499",
      "TTY": "",
      "Tollfree": "",
      "Hotline": "",
      "Email": "robin_redwing@usc.salvationarmy.org",
      "Webpage": "www.usc.salvationarmy.org/springfield-mo",
      "FacebookName": "The Salvation Army - Springfield, MO",
      "FacebookUrl": "https://www.facebook.com/SalvationArmyOzarkArea",
      "Twitter": "",
      "Services": "Sells new and donated items to benefit the Salvation Army.",
      "Latitude": "37.211947",
      "Longitude": "-93.33585",
      "Accuracy": "1",
      "Score": "range_interpolation",
      "AccuracyType": null
    },
    "Tags": [
      "Have Children",
      "Married Woman",
      "Age 30-49",
      "Single Man",
      "Age 13-17",
      "Current Alcohol Use"
    ]
  },
  {
    "Resource": {
      "ID": "53672",
      "Name": "Newborns In Need, Springfield, Missouri Chapter",
      "Address1": "712 W. Sunshine Ave.",
      "Address2": "",
      "city": "Springfield",
      "State": "MO",
      "Zip": "65807",
      "County": "GREENE COUNTY",
      "Phone": "417-823-9508",
      "Fax": "",
      "TTY": "",
      "Tollfree": "",
      "Hotline": "",
      "Email": "info@newbornsinneedspringfield.org",
      "Webpage": "www.newbornsinneedspringfield.org",
      "FacebookName": "Newborns in Need Springfield Missouri",
      "FacebookUrl": "https://www.facebook.com/groups/125385140864097/?ref=br_tf",
      "Twitter": "",
      "Services": "A Christian-based organization that supplies essential baby items such as quilts, blankets, bibs, and burp cloths to the families of less-fortunate babies in need. Items are given to hospitals and clinics in the area to be distributed at the discretion of the health care workers.",
      "Latitude": "37.182192",
      "Longitude": "-93.300172",
      "Accuracy": "1",
      "Score": "range_interpolation",
      "AccuracyType": null
    },
    "Tags": [
      "Have Children",
      "Married Woman",
      "Age 30-49",
      "Single Man",
      "Age 13-17",
      "Current Alcohol Use"
    ]
  },
  {
    "Resource": {
      "ID": "53772",
      "Name": "Jordan Valley Community Health Center -- Dental",
      "Address1": "440 E. Tampa St.",
      "Address2": "",
      "city": "Springfield",
      "State": "MO",
      "Zip": "65806",
      "County": "GREENE COUNTY",
      "Phone": "417-831-0150",
      "Fax": "417-831-0155 (medical records)",
      "TTY": "",
      "Tollfree": "",
      "Hotline": "",
      "Email": "jmorris@jordanvalley.org",
      "Webpage": "www.jordanvalley.org",
      "FacebookName": "",
      "FacebookUrl": "",
      "Twitter": "",
      "Services": "Our dental professionals care about their patients. With general and pediatric dentistry available, our dental team works to build relationships that result in patients making an active choice to improve their dental health.",
      "Latitude": "37.21361",
      "Longitude": "-93.288863",
      "Accuracy": "1",
      "Score": "range_interpolation",
      "AccuracyType": null
    },
    "Tags": [
      "Have Children",
      "Married Woman",
      "Age 30-49",
      "Single Man",
      "Age 13-17",
      "Current Alcohol Use"
    ]
  },
  {
    "Resource": {
      "ID": "53773",
      "Name": "The Gay and Lesbian Community Center of the Ozarks (GLO)",
      "Address1": "518 E. Commercial St. (physical)",
      "Address2": "P.O. Box 225 (mailing)",
      "city": "Springfield",
      "State": "MO",
      "Zip": "65801",
      "County": "GREENE COUNTY",
      "Phone": "417-869-3978",
      "Fax": "",
      "TTY": "",
      "Tollfree": "",
      "Hotline": "",
      "Email": "volunteer@glocenter.org",
      "Webpage": "www.glocenter.org",
      "FacebookName": "The Gay and Lesbian Community Center of the Ozarks",
      "FacebookUrl": "https://www.facebook.com/pages/The-Gay-Lesbian-Community-Center-of-the-Ozarks/131846014999",
      "Twitter": "@glocenter",
      "Services": "Supports the well-being of gay, lesbian, bisexual and transgender persons in the greater Springfield region by organizing and sponsoring community activities and by increasing public understanding and appreciation of GLBT citizens.",
      "Latitude": "37.229176",
      "Longitude": "-93.295348",
      "Accuracy": "1",
      "Score": "range_interpolation",
      "AccuracyType": null
    },
    "Tags": [
      "Have Children",
      "Married Woman",
      "Age 30-49",
      "Single Man",
      "Age 13-17",
      "Current Alcohol Use"
    ]
  },
  {
    "Resource": {
      "ID": "53964",
      "Name": "Operation Us at the Murney Clinic",
      "Address1": "1322 S. Campbell Ave.",
      "Address2": "",
      "city": "Springfield",
      "State": "MO",
      "Zip": "65807",
      "County": "GREENE COUNTY",
      "Phone": "417-823-3469",
      "Fax": "417-831-6839",
      "TTY": "",
      "Tollfree": "",
      "Hotline": "",
      "Email": "info@operationus.org",
      "Webpage": "www.operationus.org",
      "FacebookName": "Operation Us at the Murney Clinic",
      "FacebookUrl": "https://www.facebook.com/MurneyClinic",
      "Twitter": "@operationus",
      "Services": "A community-based initiative dedicated to strengthening relationships for couples and singles through education, partnerships and mobilization.",
      "Latitude": "37.191078",
      "Longitude": "-93.29457",
      "Accuracy": "1",
      "Score": "range_interpolation",
      "AccuracyType": null
    },
    "Tags": [
      "Have Children",
      "Married Woman",
      "Age 30-49",
      "Single Man",
      "Age 13-17",
      "Current Alcohol Use"
    ]
  },
  {
    "Resource": {
      "ID": "54107",
      "Name": "Springfield Victory Mission",
      "Address1": "1715 N. Boonville Ave.",
      "Address2": "",
      "city": "Springfield",
      "State": "MO",
      "Zip": "65803",
      "County": "GREENE COUNTY",
      "Phone": "417-831-6387",
      "Fax": "417-831-9980",
      "TTY": "",
      "Tollfree": "",
      "Hotline": "",
      "Email": "info@victorymission.com",
      "Webpage": "www.victorymission.com",
      "FacebookName": "Springfield Victory Mission",
      "FacebookUrl": "https://www.facebook.com/SpringfieldVictoryMission",
      "Twitter": "",
      "Services": "Meets physical and spiritual needs of homeless and poor through emergency and educational services. These includes lodging, food, clothing, school supplies, counseling, recovery and life skills and job training.",
      "Latitude": "37.228809",
      "Longitude": "-93.292069",
      "Accuracy": "1",
      "Score": "range_interpolation",
      "AccuracyType": null
    },
    "Tags": [
      "Have Children",
      "Married Woman",
      "Age 30-49",
      "Single Man",
      "Age 13-17",
      "Current Alcohol Use"
    ]
  },
  {
    "Resource": {
      "ID": "54334",
      "Name": "Adoption for Families and Family Therapy of the Ozarks",
      "Address1": "1310 E. Kingsley, Suite C",
      "Address2": "",
      "city": "Springfield",
      "State": "MO",
      "Zip": "65804",
      "County": "",
      "Phone": "417-882-7700",
      "Fax": "417-887-0457",
      "TTY": "",
      "Tollfree": "1-888-449-2229",
      "Hotline": "",
      "Email": "adoption4families@yahoo.com",
      "Webpage": "www.adoptionforfamilies.com",
      "FacebookName": "",
      "FacebookUrl": "",
      "Twitter": "",
      "Services": "Strives to find adoptive families for children and adoptive children for families; provides services to birth parents and their families. Provides counseling services to individuals, families and groups.",
      "Latitude": "37.140113",
      "Longitude": "-93.274547",
      "Accuracy": "1",
      "Score": "range_interpolation",
      "AccuracyType": null
    },
    "Tags": [
      "Have Children",
      "Married Woman",
      "Age 30-49",
      "Single Man",
      "Age 13-17",
      "Current Alcohol Use"
    ]
  },
  {
    "Resource": {
      "ID": "54436",
      "Name": "Children's Smile Center",
      "Address1": "601 N. 21st St.",
      "Address2": "P.O. Box 1833",
      "city": "Ozark ",
      "State": "MO",
      "Zip": "65721",
      "County": "CHRISTIAN COUNTY",
      "Phone": "417-582-5439",
      "Fax": "417-485-5455",
      "TTY": "",
      "Tollfree": "",
      "Hotline": "",
      "Email": "info@childrenssmilecenter.org",
      "Webpage": "www.childrenssmilecenter.org",
      "FacebookName": "Children's Smile Center",
      "FacebookUrl": "https://www.facebook.com/childrenssmilecenter",
      "Twitter": "",
      "Services": "Provides preventive and primary dental care for children ages 1 to 19 and pregnant women with active Medicaid who reside in Christian, Taney, Stone, Barry, Lawrence and Dade counties.",
      "Latitude": "37.049144",
      "Longitude": "-93.230751",
      "Accuracy": "0.8",
      "Score": "street_center",
      "AccuracyType": null
    },
    "Tags": [
      "Have Children",
      "Married Woman",
      "Age 30-49",
      "Single Man",
      "Age 13-17",
      "Current Alcohol Use"
    ]
  },
  {
    "Resource": {
      "ID": "54487",
      "Name": "First Steps (System Point of Entry) (SPOE)",
      "Address1": "1370 E. Primrose Ave., Suite A",
      "Address2": "",
      "city": "Springfield",
      "State": "MO",
      "Zip": "65804",
      "County": "GREENE COUNTY",
      "Phone": "417-886-0404",
      "Fax": "417-863-9889",
      "TTY": "",
      "Tollfree": "1-866-583-2392",
      "Hotline": "",
      "Email": "christy@abilitiesfirst.net",
      "Webpage": "www.abilitiesfirst.net",
      "FacebookName": "",
      "FacebookUrl": "",
      "Twitter": "",
      "Services": "Missouri's early intervention program which is designed to help families build capacity to support their children (from birth to age three) with developmental disorders or delays.",
      "Latitude": "37.147726",
      "Longitude": "-93.272577",
      "Accuracy": "1",
      "Score": "range_interpolation",
      "AccuracyType": null
    },
    "Tags": [
      "Have Children",
      "Married Woman",
      "Age 30-49",
      "Single Man",
      "Age 13-17",
      "Current Alcohol Use"
    ]
  },
  {
    "Resource": {
      "ID": "54555",
      "Name": "Musgrave Foundation",
      "Address1": "1949 E. Sunshine St., Suite 1-130",
      "Address2": "",
      "city": "Springfield",
      "State": "MO",
      "Zip": "65804",
      "County": "",
      "Phone": "417-841-4698",
      "Fax": "",
      "TTY": "",
      "Tollfree": "",
      "Hotline": "",
      "Email": "contact@musgravefoundation.org",
      "Webpage": "www.musgravefoundation.org",
      "FacebookName": "",
      "FacebookUrl": "",
      "Twitter": "",
      "Services": "Awards grants to selected charities in the Springfield, Missouri area.",
      "Latitude": "37.181639",
      "Longitude": "-93.260888",
      "Accuracy": "1",
      "Score": "range_interpolation",
      "AccuracyType": null
    },
    "Tags": [
      "Have Children",
      "Married Woman",
      "Age 30-49",
      "Single Man",
      "Age 13-17",
      "Current Alcohol Use"
    ]
  },
  {
    "Resource": {
      "ID": "54675",
      "Name": "The Veterans Center (formerly Myrl Billings Memorial Veterans Center)",
      "Address1": "",
      "Address2": "",
      "city": "",
      "State": "",
      "Zip": "",
      "County": "GREENE COUNTY",
      "Phone": "417-862-8387 or 816-561-8387",
      "Fax": "417-832-8387",
      "TTY": "",
      "Tollfree": "",
      "Hotline": "",
      "Email": "",
      "Webpage": "www.vva317.com",
      "FacebookName": "",
      "FacebookUrl": "",
      "Twitter": "",
      "Services": "Contact information for Vietnam Veterans of America, who assist veterans with VA compensation and pension claims, GI Bill education benefits, vocational rehabilitation programs, military records retrieval, burial and memorial services, acquiring military decorations, and entrance into the VA health system provided by VA outpatient clinics and hospitals.",
      "Latitude": "0",
      "Longitude": "0",
      "Accuracy": "0",
      "Score": "",
      "AccuracyType": null
    },
    "Tags": [
      "Have Children",
      "Married Woman",
      "Age 30-49",
      "Single Man",
      "Age 13-17",
      "Current Alcohol Use"
    ]
  },
  {
    "Resource": {
      "ID": "54715",
      "Name": "Ronald McDonald Care Mobile (The \"Tooth Truck\")",
      "Address1": "949 E. Primrose St.",
      "Address2": "",
      "city": "Springfield",
      "State": "MO",
      "Zip": "65807",
      "County": "GREENE COUNTY",
      "Phone": "417-891-1238 administrative--417-875-3504",
      "Fax": "417-882-7206",
      "TTY": "",
      "Tollfree": "",
      "Hotline": "",
      "Email": "bonnie.keller@rmhcozarks.org",
      "Webpage": "www.toothtruck.org",
      "FacebookName": "Ronald McDonald House Charities of the Ozarks in Springfield, Missouri",
      "FacebookUrl": "https://www.facebook.com/RMHC.Ozarks",
      "Twitter": "",
      "Services": "Provides a mobile dental unit for at-risk children.",
      "Latitude": "37.146969",
      "Longitude": "-93.281665",
      "Accuracy": "0.7",
      "Score": "range_interpolation",
      "AccuracyType": null
    },
    "Tags": [
      "Have Children",
      "Married Woman",
      "Age 30-49",
      "Single Man",
      "Age 13-17",
      "Current Alcohol Use"
    ]
  },
  {
    "Resource": {
      "ID": "54716",
      "Name": "Isabel's House (Crisis Nursery of the Ozarks, Inc.)",
      "Address1": "2750 W. Bennett St.",
      "Address2": "",
      "city": "Springfield",
      "State": "MO",
      "Zip": "65802",
      "County": "GREENE COUNTY",
      "Phone": "417-865-2273",
      "Fax": "417-865-3081",
      "TTY": "",
      "Tollfree": "",
      "Hotline": "417-865-2273 (CARE)",
      "Email": "isabel@isabelshouse.org",
      "Webpage": "www.isabelshouse.org",
      "FacebookName": "",
      "FacebookUrl": "",
      "Twitter": "",
      "Services": "Provides immediate refuge for children whose families are in crisis due to homelessness, medical emergencies, drug rehabilitation or overwhelming stress; partners with families and the community to strengthen families and prevent child abuse and neglect.",
      "Latitude": "37.190219",
      "Longitude": "-93.332579",
      "Accuracy": "1",
      "Score": "range_interpolation",
      "AccuracyType": null
    },
    "Tags": [
      "Have Children",
      "Married Woman",
      "Age 30-49",
      "Single Man",
      "Age 13-17",
      "Current Alcohol Use"
    ]
  },
  {
    "Resource": {
      "ID": "54966",
      "Name": "The Journey Home Project (Burrell Behavioral Health Homeless Services)",
      "Address1": "1720 N. Jefferson Ave., Suite 2",
      "Address2": "",
      "city": "Springfield",
      "State": "MO",
      "Zip": "65803",
      "County": "GREENE COUNTY",
      "Phone": "417-761-5530",
      "Fax": "417-761-5531",
      "TTY": "",
      "Tollfree": "",
      "Hotline": "1-800-494-7355 or 417-862-6555",
      "Email": "michael.lehmann@burrellcenter.com",
      "Webpage": "",
      "FacebookName": "",
      "FacebookUrl": "",
      "Twitter": "",
      "Services": "A program that helps provide a link to services for homeless individuals, and a path to treatment for homeless individuals with mental illness and co-occurring disorders.",
      "Latitude": "37.229355",
      "Longitude": "-93.28888",
      "Accuracy": "1",
      "Score": "range_interpolation",
      "AccuracyType": null
    },
    "Tags": [
      "Have Children",
      "Married Woman",
      "Age 30-49",
      "Single Man",
      "Age 13-17",
      "Current Alcohol Use"
    ]
  },
  {
    "Resource": {
      "ID": "55559",
      "Name": "Safe At Home",
      "Address1": "1736 E. Sunshine St., Suite 707",
      "Address2": "",
      "city": "Springfield",
      "State": "MO",
      "Zip": "65804",
      "County": "",
      "Phone": "417-863-7233",
      "Fax": "417-823-0390",
      "TTY": "",
      "Tollfree": "1-877-603-7805",
      "Hotline": "",
      "Email": "jdavis@livesafeathome.org",
      "Webpage": "www.livesafeathome.org",
      "FacebookName": "Safe at Home",
      "FacebookUrl": "https://www.facebook.com/SAHSPFDMO",
      "Twitter": "",
      "Services": "We provide compassion, resources and personal emergency systems to seniors at little or no cost, so they can live Safe At Home, longer.",
      "Latitude": "37.181669",
      "Longitude": "-93.263859",
      "Accuracy": "1",
      "Score": "range_interpolation",
      "AccuracyType": null
    },
    "Tags": [
      "Have Children",
      "Married Woman",
      "Age 30-49",
      "Single Man",
      "Age 13-17",
      "Current Alcohol Use"
    ]
  },
  {
    "Resource": {
      "ID": "5558",
      "Name": "Bill's Place -- Burrell Behavioral Health Homeless Services",
      "Address1": "424 E. Commercial St.",
      "Address2": "",
      "city": "Springfield",
      "State": "MO",
      "Zip": "65803",
      "County": "",
      "Phone": "417-761-5520",
      "Fax": "417-761-5521",
      "TTY": "",
      "Tollfree": "",
      "Hotline": "",
      "Email": "michael.lehman@burrellcenter.com",
      "Webpage": "",
      "FacebookName": "",
      "FacebookUrl": "",
      "Twitter": "",
      "Services": "A drop-in center that offers counseling to the homeless, the mentally ill and the general public.",
      "Latitude": "37.229656",
      "Longitude": "-93.288576",
      "Accuracy": "1",
      "Score": "range_interpolation",
      "AccuracyType": null
    },
    "Tags": [
      "Have Children",
      "Married Woman",
      "Age 30-49",
      "Single Man",
      "Age 13-17",
      "Current Alcohol Use"
    ]
  },
  {
    "Resource": {
      "ID": "59585",
      "Name": "Heart of the Ozarks and Hand Extended Outreach Pantry",
      "Address1": "2157 N. Prospect Ave.",
      "Address2": "",
      "city": "Springfield",
      "State": "MO",
      "Zip": "65803",
      "County": "",
      "Phone": "417-848-5433",
      "Fax": "417-864-7131",
      "TTY": "",
      "Tollfree": "",
      "Hotline": "",
      "Email": "handextendedoutreach@yahoo.com",
      "Webpage": "",
      "FacebookName": "",
      "FacebookUrl": "",
      "Twitter": "",
      "Services": "The pantry provides emergency food; Heart of the Ozarks provides \"Access to Recovery,\" a faith-based substance abuse counseling program, and sponsors a Christmas \"pass it on\" gift program for clients of the pantry.",
      "Latitude": "37.235997",
      "Longitude": "-93.272662",
      "Accuracy": "1",
      "Score": "range_interpolation",
      "AccuracyType": null
    },
    "Tags": [
      "Have Children",
      "Married Woman",
      "Age 30-49",
      "Single Man",
      "Age 13-17",
      "Current Alcohol Use"
    ]
  },
  {
    "Resource": {
      "ID": "59940",
      "Name": "Caring People",
      "Address1": "164 Corporate Drive, Suite T",
      "Address2": "",
      "city": "Branson",
      "State": "MO",
      "Zip": "65616",
      "County": "",
      "Phone": "417-334-0131",
      "Fax": "1-417-334-0132",
      "TTY": "",
      "Tollfree": "1-877-227-3525 (877-CARE-525)",
      "Hotline": "",
      "Email": "info@thecaringpeople.org",
      "Webpage": "www.thecaringpeople.org",
      "FacebookName": "The Caring People",
      "FacebookUrl": "https://www.facebook.com/thecaringpeople",
      "Twitter": "",
      "Services": "Provides a Christian mentoring program for single mothers.",
      "Latitude": "36.669373",
      "Longitude": "-93.248879",
      "Accuracy": "0.33",
      "Score": "place",
      "AccuracyType": null
    },
    "Tags": [
      "Have Children",
      "Married Woman",
      "Age 30-49",
      "Single Man",
      "Age 13-17",
      "Current Alcohol Use"
    ]
  },
  {
    "Resource": {
      "ID": "628188",
      "Name": "OneSolePurpose",
      "Address1": "1325 W. Sunshine #125",
      "Address2": "",
      "city": "Springfield",
      "State": "MO",
      "Zip": "65807",
      "County": "",
      "Phone": "417-299-3998",
      "Fax": "",
      "TTY": "",
      "Tollfree": "",
      "Hotline": "",
      "Email": "gayla@onesolepurpose.com",
      "Webpage": "www.onesolepurpose.com",
      "FacebookName": "One Sole Purpose",
      "FacebookUrl": "https://www.facebook.com/OneSolePurpose417",
      "Twitter": "@OneSolePurpose",
      "Services": "Provides new shoes to the children in each of the Title I elementary schools in Springfield, Mo.",
      "Latitude": "37.182529",
      "Longitude": "-93.309049",
      "Accuracy": "1",
      "Score": "range_interpolation",
      "AccuracyType": null
    },
    "Tags": [
      "Have Children",
      "Married Woman",
      "Age 30-49",
      "Single Man",
      "Age 13-17",
      "Current Alcohol Use"
    ]
  },
  {
    "Resource": {
      "ID": "665644",
      "Name": "Adoption Triad of the Ozarks",
      "Address1": "1235 E. Cherokee, PDR #2",
      "Address2": "",
      "city": "Springfield",
      "State": "MO",
      "Zip": "65804",
      "County": "",
      "Phone": "417-840-8492",
      "Fax": "",
      "TTY": "",
      "Tollfree": "",
      "Hotline": "",
      "Email": "sfieker@ichoosethisday.org",
      "Webpage": "www.ichoosethisday.org",
      "FacebookName": "",
      "FacebookUrl": "",
      "Twitter": "",
      "Services": "A safe, non-judgmental environment for all adults to share experiences and learn from other adult adoptees, birth parents and adoptive parents.",
      "Latitude": "37.17814",
      "Longitude": "-93.266419",
      "Accuracy": "0.8",
      "Score": "street_center",
      "AccuracyType": null
    },
    "Tags": [
      "Have Children",
      "Married Woman",
      "Age 30-49",
      "Single Man",
      "Age 13-17",
      "Current Alcohol Use"
    ]
  },
  {
    "Resource": {
      "ID": "68499300",
      "Name": "The Salvation Army: Day Labor Program",
      "Address1": "636 N. Boonville Ave.",
      "Address2": "",
      "city": "Springfield",
      "State": "MO",
      "Zip": "65806",
      "County": "",
      "Phone": "417-831-3371",
      "Fax": "",
      "TTY": "",
      "Tollfree": "",
      "Hotline": "",
      "Email": "Dianna_Lewis@usc.salvationarmy.org",
      "Webpage": "www.usc.salvationarmy.org/springfield-mo",
      "FacebookName": "The Salvation Army - Springfield, MO",
      "FacebookUrl": "https://www.facebook.com/SalvationArmyOzarkArea",
      "Twitter": "",
      "Services": "Provides opportunities for occasional labor to those looking for a day's work.",
      "Latitude": "37.214311",
      "Longitude": "-93.292195",
      "Accuracy": "1",
      "Score": "range_interpolation",
      "AccuracyType": null
    },
    "Tags": [
      "Have Children",
      "Married Woman",
      "Age 30-49",
      "Single Man",
      "Age 13-17",
      "Current Alcohol Use"
    ]
  },
  {
    "Resource": {
      "ID": "82991",
      "Name": "One Door",
      "Address1": "300 E. Central",
      "Address2": "",
      "city": "Springfield",
      "State": "MO",
      "Zip": "65802",
      "County": "",
      "Phone": "417-225-7499",
      "Fax": "417-631-4489",
      "TTY": "",
      "Tollfree": "",
      "Hotline": "",
      "Email": "mtonarely@commpartnership.org",
      "Webpage": "www.commpartnership.org",
      "FacebookName": "",
      "FacebookUrl": "",
      "Twitter": "",
      "Services": "Offers referrals and assistance to individuals and families who are homeless, at risk of becoming homeless or in need of assistance.",
      "Latitude": "37.217229",
      "Longitude": "-93.290989",
      "Accuracy": "1",
      "Score": "range_interpolation",
      "AccuracyType": null
    },
    "Tags": [
      "Have Children",
      "Married Woman",
      "Age 30-49",
      "Single Man",
      "Age 13-17",
      "Current Alcohol Use"
    ]
  },
  {
    "Resource": {
      "ID": "83776",
      "Name": "Victory Trade School",
      "Address1": "1715 N. Boonville Ave.",
      "Address2": "",
      "city": "Springfield",
      "State": "MO",
      "Zip": "65803",
      "County": "",
      "Phone": "417-864-2222",
      "Fax": "417-831-9980",
      "TTY": "",
      "Tollfree": "",
      "Hotline": "",
      "Email": "info@victorytradeschool.edu",
      "Webpage": "www.victorytradeschool.edu",
      "FacebookName": "Victory Trade School",
      "FacebookUrl": "https://www.facebook.com/VictoryTradeSchool",
      "Twitter": "@victradeschool",
      "Services": "Offers certificates in culinary arts and family science. Provides debt-free education to non-traditional students from disadvantaged backgrounds. Students learn hands-on job skills and academic excellence through holistic teaching and professionally-led laboratories. Also maintains Cook's Kettle, a student-operated restaurant open to the public for breakfast and lunch.",
      "Latitude": "37.228809",
      "Longitude": "-93.292069",
      "Accuracy": "1",
      "Score": "range_interpolation",
      "AccuracyType": null
    },
    "Tags": [
      "Have Children",
      "Married Woman",
      "Age 30-49",
      "Single Man",
      "Age 13-17",
      "Current Alcohol Use"
    ]
  },
  {
    "Resource": {
      "ID": "9288288",
      "Name": "United States: Internal Revenue Service",
      "Address1": "2937 S. Claremont Ave., Building A, Suite 115",
      "Address2": "",
      "city": "Springfield",
      "State": "MO",
      "Zip": "65804",
      "County": "",
      "Phone": "417-889-9828",
      "Fax": "",
      "TTY": "",
      "Tollfree": "1-800-829-1040",
      "Hotline": "",
      "Email": "",
      "Webpage": "www.irs.gov",
      "FacebookName": "IRS",
      "FacebookUrl": "https://www.facebook.com/IRS",
      "Twitter": "@IRSnews",
      "Services": "Provides general federal income tax information and account services.",
      "Latitude": "37.159703",
      "Longitude": "-93.23565",
      "Accuracy": "1",
      "Score": "range_interpolation",
      "AccuracyType": null
    },
    "Tags": [
      "Have Children",
      "Married Woman",
      "Age 30-49",
      "Single Man",
      "Age 13-17",
      "Current Alcohol Use"
    ]
  },
  {
    "Resource": {
      "ID": "94004",
      "Name": "Care to Learn",
      "Address1": "411 N. Sherman Parkway",
      "Address2": "",
      "city": "Springfield",
      "State": "MO",
      "Zip": "65802",
      "County": "",
      "Phone": "417-862-7771",
      "Fax": "",
      "TTY": "",
      "Tollfree": "",
      "Hotline": "",
      "Email": "mmechlin@caretolearnfund.org",
      "Webpage": "www.caretolearnfund.org",
      "FacebookName": "Care to Learn",
      "FacebookUrl": "https://www.facebook.com/caretolearnfund",
      "Twitter": "@caretolearn",
      "Services": "Provides emergency services in the area of health, hunger and hygiene. Services are provided to students in Springfield, Bolivar, Clever, Fordland, Logan-Rogersville, Ozark, Nixa, Republic and Willard Public Schools and Ozarks Technical Community College.",
      "Latitude": "37.211431",
      "Longitude": "-93.281429",
      "Accuracy": "1",
      "Score": "range_interpolation",
      "AccuracyType": null
    },
    "Tags": [
      "Have Children",
      "Married Woman",
      "Age 30-49",
      "Single Man",
      "Age 13-17",
      "Current Alcohol Use"
    ]
  },
  {
    "Resource": {
      "ID": "AAA333",
      "Name": "Good Samaritan Boys Ranch: Footsteps Transitional Living for Boys",
      "Address1": "424 E. Norton Road",
      "Address2": "",
      "city": "Springfield",
      "State": "MO",
      "Zip": "65803",
      "County": "",
      "Phone": "417-864-6698",
      "Fax": "417-865-4527",
      "TTY": "",
      "Tollfree": "",
      "Hotline": "",
      "Email": "info@footstepsliving.com",
      "Webpage": "www.ranchlife.org",
      "FacebookName": "Footsteps Transitional Living",
      "FacebookUrl": "https://www.facebook.com/pages/Footsteps-Transitional-Living/138242839533396",
      "Twitter": "",
      "Services": "Footsteps is a transitional living program for young men preparing to age out of the foster care system.",
      "Latitude": "37.25142",
      "Longitude": "-93.28761",
      "Accuracy": "1",
      "Score": "range_interpolation",
      "AccuracyType": null
    },
    "Tags": [
      "Have Children",
      "Married Woman",
      "Age 30-49",
      "Single Man",
      "Age 13-17",
      "Current Alcohol Use"
    ]
  },
  {
    "Resource": {
      "ID": "AAA444",
      "Name": "Good Samaritan Boys Ranch: Laura's Home, Transitional Living for Girls",
      "Address1": "300 S. Main",
      "Address2": "",
      "city": "Willard",
      "State": "MO",
      "Zip": "65781",
      "County": "",
      "Phone": "417-708-5166",
      "Fax": "417-763-3472",
      "TTY": "",
      "Tollfree": "",
      "Hotline": "",
      "Email": "information@ranchlife.org",
      "Webpage": "www.ranchlife.org",
      "FacebookName": "Good Samaritan Boys Ranch",
      "FacebookUrl": "https://www.facebook.com/pages/Good-Samaritan-Boys-Ranch/159421550739446",
      "Twitter": "",
      "Services": "A group home in Willard which provides transitional living services to girls ages 16-21 in the foster care system.",
      "Latitude": "37.30255",
      "Longitude": "-93.430629",
      "Accuracy": "1",
      "Score": "range_interpolation",
      "AccuracyType": null
    },
    "Tags": [
      "Have Children",
      "Married Woman",
      "Age 30-49",
      "Single Man",
      "Age 13-17",
      "Current Alcohol Use"
    ]
  },
  {
    "Resource": {
      "ID": "AAA999",
      "Name": "Cover Your Bum Cloth Diaper Bank",
      "Address1": "P.O. Box 848",
      "Address2": "",
      "city": "Springfield",
      "State": "MO",
      "Zip": "65801",
      "County": "",
      "Phone": "417-812-6BUM (messages only)",
      "Fax": "",
      "TTY": "",
      "Tollfree": "",
      "Hotline": "",
      "Email": "coveryourbumdiapers@gmail.com",
      "Webpage": "www.coveryourbum.net",
      "FacebookName": "Cover Your Bum Cloth Diaper Bank",
      "FacebookUrl": "https://www.facebook.com/coveryourbumclothdiaperbank?fref=ts",
      "Twitter": "",
      "Services": "Loans cloth diapers to families in need of a little extra support. Assists parents who want better, cheaper diapering options but fear startup costs. By providing a limited time loan, it helps families decide if cloth diapering is right for them, and helps them save money by purchasing cloth diapers. CYB also provides training for how to care for cloth diapers and how to choose effective, budget friendly cloth diaper options.",
      "Latitude": "37.25807",
      "Longitude": "-93.343673",
      "Accuracy": "1",
      "Score": "place",
      "AccuracyType": null
    },
    "Tags": [
      "Have Children",
      "Married Woman",
      "Age 30-49",
      "Single Man",
      "Age 13-17",
      "Current Alcohol Use"
    ]
  },
  {
    "Resource": {
      "ID": "aabbcc",
      "Name": "Republic Pregnancy Resource Center",
      "Address1": "291 U.S. Highway 60 West",
      "Address2": "P.O. Box 332",
      "city": "Republic",
      "State": "MO",
      "Zip": "65738",
      "County": "",
      "Phone": "417-732-5993",
      "Fax": "",
      "TTY": "",
      "Tollfree": "",
      "Hotline": "",
      "Email": "director@republicprc.org",
      "Webpage": "republicprc.org",
      "FacebookName": "Republic Pregnancy Resource Center",
      "FacebookUrl": "https://www.facebook.com/RepublicPregnancyResourceCenter",
      "Twitter": "",
      "Services": "Free Pregnancy Test and limited obstetrical ultrasounds. Parenting classes and baby resources, including diapers, wipes, cloths, toys, many miscellaneous items for baby.",
      "Latitude": "37.114895",
      "Longitude": "-93.476522",
      "Accuracy": "1",
      "Score": "range_interpolation",
      "AccuracyType": null
    },
    "Tags": [
      "Have Children",
      "Married Woman",
      "Age 30-49",
      "Single Man",
      "Age 13-17",
      "Current Alcohol Use"
    ]
  },
  {
    "Resource": {
      "ID": "BBB555",
      "Name": "Drew Lewis Foundation at the Fairbanks",
      "Address1": "1126 N. Broadway Ave.",
      "Address2": "",
      "city": "Springfield",
      "State": "MO",
      "Zip": "65802",
      "County": "",
      "Phone": "417-720-1890",
      "Fax": "",
      "TTY": "",
      "Tollfree": "",
      "Hotline": "",
      "Email": "thefairbanksinfo@gmail.com",
      "Webpage": "www.thefairbankssgf.com",
      "FacebookName": "The Fairbanks",
      "FacebookUrl": "https://www.facebook.com/TheFairbanksSGF",
      "Twitter": "@thefairbankssgf",
      "Services": "The mission of the Drew Lewis Foundation is to improve the quality of life in under-served urban neighborhoods. To accomplish this, the Foundation partners with existing area organizations to establish community hubs, which serve to boost the economic and physical wellness of neighborhood residents of all ages. These outcomes are achieved through a variety of means, including education and vocational programs, garden-to-table initiatives, public health services and community events.",
      "Latitude": "37.22033",
      "Longitude": "-93.302774",
      "Accuracy": "1",
      "Score": "range_interpolation",
      "AccuracyType": null
    },
    "Tags": [
      "Have Children",
      "Married Woman",
      "Age 30-49",
      "Single Man",
      "Age 13-17",
      "Current Alcohol Use"
    ]
  },
  {
    "Resource": {
      "ID": "BBB888",
      "Name": "Higher Ground Recovery Center",
      "Address1": "2032 E. Kearney, Suite 214",
      "Address2": "",
      "city": "Springfield",
      "State": "MO",
      "Zip": "65803",
      "County": "",
      "Phone": "417-869-0700",
      "Fax": "417-869-0705",
      "TTY": "",
      "Tollfree": "",
      "Hotline": "",
      "Email": "shahn@higherground417.org",
      "Webpage": "",
      "FacebookName": "Higher Ground Recovery Center",
      "FacebookUrl": "https://www.facebook.com/highergroundrecovery/?fref=ts",
      "Twitter": "",
      "Services": "A state certified Christian-based substance abuse outpatient program.",
      "Latitude": "37.239731",
      "Longitude": "-93.256131",
      "Accuracy": "1",
      "Score": "range_interpolation",
      "AccuracyType": null
    },
    "Tags": [
      "Have Children",
      "Married Woman",
      "Age 30-49",
      "Single Man",
      "Age 13-17",
      "Current Alcohol Use"
    ]
  },
  {
    "Resource": {
      "ID": "BBB999",
      "Name": "Girls on the Run of Southwest Missouri",
      "Address1": "1111 S. Glenstone Ste 120",
      "Address2": "P.O. Box 14216",
      "city": "Springfield",
      "State": "MO",
      "Zip": "65814",
      "County": "",
      "Phone": "417-763-3646",
      "Fax": "",
      "TTY": "",
      "Tollfree": "",
      "Hotline": "",
      "Email": "gotrswmo@gotrswmo.org",
      "Webpage": "www.gotrswmo.org",
      "FacebookName": "Girls on the Run of Southwest Missouri",
      "FacebookUrl": "https://www.facebook.com/gotrswmo",
      "Twitter": "@gotrswmo",
      "Services": "An empowering after school program for girls in grades 3-8 that uses game-based exercise curriculum to teach life skills. The lessons encourage postivie emotional, social, mental and physical development. Physcial activity is used to inspire an appreciation of fitness and build habits that lead to lifetime health. Our mission is to inspire girls to be joyful, healthy and confident using a fun, experience-based curriculum which creatively integrates running.",
      "Latitude": "37.219849",
      "Longitude": "-93.261717",
      "Accuracy": "1",
      "Score": "range_interpolation",
      "AccuracyType": null
    },
    "Tags": [
      "Have Children",
      "Married Woman",
      "Age 30-49",
      "Single Man",
      "Age 13-17",
      "Current Alcohol Use"
    ]
  },
  {
    "Resource": {
      "ID": "cccc",
      "Name": "The Salvation Army Family Enrichment Center",
      "Address1": "1707 W. Chestnut Expressway",
      "Address2": "",
      "city": "Springfield",
      "State": "MO",
      "Zip": "65802-4279",
      "County": "Greene",
      "Phone": "417-862-5509",
      "Fax": "",
      "TTY": "",
      "Tollfree": "",
      "Hotline": "",
      "Email": "amanda_long@usc.salvationarmy.org",
      "Webpage": "www.usc.salvationarmy.org/springfield-mo",
      "FacebookName": "The Salvation Army - Springfield, MO",
      "FacebookUrl": "https://www.facebook.com/SalvationArmyOzarkArea",
      "Twitter": "",
      "Services": "A transitional housing program for homeless or at-risk families; clients are provided with intensive, supportive services and structured guidance as they work toward regaining independence and self-sufficiency.",
      "Latitude": "37.214497",
      "Longitude": "-93.313716",
      "Accuracy": "1",
      "Score": "range_interpolation",
      "AccuracyType": null
    },
    "Tags": [
      "Have Children",
      "Married Woman",
      "Age 30-49",
      "Single Man",
      "Age 13-17",
      "Current Alcohol Use"
    ]
  },
  {
    "Resource": {
      "ID": "gg",
      "Name": "Christian County Family Crisis Center (aka Freedom's Rest)",
      "Address1": "P.O. Box 1276",
      "Address2": "",
      "city": "Ozark",
      "State": "MO",
      "Zip": "65721",
      "County": "",
      "Phone": "414-582-0344",
      "Fax": "",
      "TTY": "",
      "Tollfree": "",
      "Hotline": "417-299-2494",
      "Email": "",
      "Webpage": "",
      "FacebookName": "Freedom's Rest",
      "FacebookUrl": "https://www.facebook.com/freedomsrest1",
      "Twitter": "",
      "Services": "Provides emergency shelter and case management services for victims of domestic violence.",
      "Latitude": "37.02089",
      "Longitude": "-93.20602",
      "Accuracy": "1",
      "Score": "place",
      "AccuracyType": null
    },
    "Tags": [
      "Have Children",
      "Married Woman",
      "Age 30-49",
      "Single Man",
      "Age 13-17",
      "Current Alcohol Use"
    ]
  },
  {
    "Resource": {
      "ID": "jj",
      "Name": "Sammy's Window",
      "Address1": "",
      "Address2": "",
      "city": "",
      "State": "",
      "Zip": "",
      "County": "",
      "Phone": "417-849-7941",
      "Fax": "",
      "TTY": "",
      "Tollfree": "",
      "Hotline": "",
      "Email": "",
      "Webpage": "",
      "FacebookName": "",
      "FacebookUrl": "",
      "Twitter": "",
      "Services": "Provides assistance, such as clothing and personal hygiene items, to children entering the foster care system.",
      "Latitude": "0",
      "Longitude": "0",
      "Accuracy": "0",
      "Score": "",
      "AccuracyType": null
    },
    "Tags": [
      "Have Children",
      "Married Woman",
      "Age 30-49",
      "Single Man",
      "Age 13-17",
      "Current Alcohol Use"
    ]
  },
  {
    "Resource": {
      "ID": "OOOO",
      "Name": "Friends Against Hunger",
      "Address1": "P.O. Box 7108",
      "Address2": "",
      "city": "Springfield",
      "State": "MO",
      "Zip": "65801-7108",
      "County": "",
      "Phone": "417-773-1639",
      "Fax": "",
      "TTY": "",
      "Tollfree": "",
      "Hotline": "",
      "Email": "director@fahunger.org",
      "Webpage": "www.fahunger.org",
      "FacebookName": "Friends Against Hunger",
      "FacebookUrl": "https://www.facebook.com/FriendsAgainstHunger?fref=ts",
      "Twitter": "@FAHunger",
      "Services": "Provides specially-formulated, packaged food for hungry people in the United States and starving people around the world.",
      "Latitude": "37.25807",
      "Longitude": "-93.343673",
      "Accuracy": "1",
      "Score": "place",
      "AccuracyType": null
    },
    "Tags": [
      "Have Children",
      "Married Woman",
      "Age 30-49",
      "Single Man",
      "Age 13-17",
      "Current Alcohol Use"
    ]
  },
  {
    "Resource": {
      "ID": "ss",
      "Name": "PFLAG-Springfield",
      "Address1": "P.O. Box 1752",
      "Address2": "",
      "city": "Springfield",
      "State": "MO",
      "Zip": "65801-1752",
      "County": "",
      "Phone": "417-350-5300",
      "Fax": "",
      "TTY": "",
      "Tollfree": "",
      "Hotline": "",
      "Email": "pflagoftheozarks@gmail.com",
      "Webpage": "www.pflag-springfield.org",
      "FacebookName": "PFLAG Springfield",
      "FacebookUrl": "https://www.facebook.com/groups/138181975848/",
      "Twitter": "",
      "Services": "Provides support for families, allies and people who are LGBTQ; educates about the unique issues and challenges facing people who are LGBTQ; advocates in our communities to change attitudes and create policies and laws that achieve full equality for people who are LGBTQ. Meets 3 p.m., the third Sunday of each month at National Avenue Christian Church, 1515 S. National Ave.",
      "Latitude": "37.25807",
      "Longitude": "-93.343673",
      "Accuracy": "1",
      "Score": "place",
      "AccuracyType": null
    },
    "Tags": [
      "Have Children",
      "Married Woman",
      "Age 30-49",
      "Single Man",
      "Age 13-17",
      "Current Alcohol Use"
    ]
  },
  {
    "Resource": {
      "ID": "vv",
      "Name": "Diaper Bank of the Ozarks",
      "Address1": "615 N. Glenstone",
      "Address2": "",
      "city": "Springfield",
      "State": "MO",
      "Zip": "65802",
      "County": "",
      "Phone": "417-848-5049",
      "Fax": "",
      "TTY": "",
      "Tollfree": "",
      "Hotline": "",
      "Email": "jillbright61@gmail.com",
      "Webpage": "www.diaperbankoftheozarks.org",
      "FacebookName": "Diaper Bank of the Ozarks",
      "FacebookUrl": "",
      "Twitter": "",
      "Services": "Distributes disposable diapers to families in need and provides education, supplies and support for families who wish to learn more about the cloth diaper option.",
      "Latitude": "37.213632",
      "Longitude": "-93.261876",
      "Accuracy": "1",
      "Score": "range_interpolation",
      "AccuracyType": null
    },
    "Tags": [
      "Have Children",
      "Married Woman",
      "Age 30-49",
      "Single Man",
      "Age 13-17",
      "Current Alcohol Use"
    ]
  },
  {
    "Resource": {
      "ID": "xx",
      "Name": "Missouri Career Center",
      "Address1": "2720 Shepherd of the Hills Expressway, Suite B",
      "Address2": "",
      "city": "Branson",
      "State": "MO",
      "Zip": "65616",
      "County": "",
      "Phone": "417-334-4156",
      "Fax": "417-334-4159",
      "TTY": "",
      "Tollfree": "1-888-728-JOBS",
      "Hotline": "",
      "Email": "branson@ded.mo.gov",
      "Webpage": "www.jobs.mo.gov",
      "FacebookName": "",
      "FacebookUrl": "",
      "Twitter": "",
      "Services": "Offers job seekers a variety of services, programs and resources to assist in locating training and employment opportunities. Provides employers with tools to locate workforce information and assist with recruitment efforts.",
      "Latitude": "36.651511",
      "Longitude": "-93.268031",
      "Accuracy": "1",
      "Score": "range_interpolation",
      "AccuracyType": null
    },
    "Tags": [
      "Have Children",
      "Married Woman",
      "Age 30-49",
      "Single Man",
      "Age 13-17",
      "Current Alcohol Use"
    ]
  },
  {
    "Resource": {
      "ID": "XXXX",
      "Name": "Catholic Charities of Southern Missouri, Inc.",
      "Address1": "424 E. Monastery St.",
      "Address2": "",
      "city": "Springfield",
      "State": "MO",
      "Zip": "65807",
      "County": "Greene",
      "Phone": "417-720-4213",
      "Fax": "417-720-4216",
      "TTY": "",
      "Tollfree": "",
      "Hotline": "",
      "Email": "info@ccsomo.org",
      "Webpage": "www.ccsomo.org",
      "FacebookName": "Catholic Charities of Southern Missouri",
      "FacebookUrl": "https://www.facebook.com/CCSOMO",
      "Twitter": "",
      "Services": "Seeks to ensure that individuals and families in need receive necessary social services, obtain a sense of hope and achieve self-sufficiency. Serves individuals of all faiths, races and ethnic backgrounds. Services include homelessness prevention, disaster response, home repairs for survivors of natural disasters and low-income seniors, crisis maternity home, supportive services for veterans and their families, support for developmentally disabled, mental health and family counseling and much more.",
      "Latitude": "37.137965",
      "Longitude": "-93.289829",
      "Accuracy": "0.8",
      "Score": "range_interpolation",
      "AccuracyType": null
    },
    "Tags": [
      "Have Children",
      "Married Woman",
      "Age 30-49",
      "Single Man",
      "Age 13-17",
      "Current Alcohol Use"
    ]
  },
  {
    "Resource": {
      "ID": "ZZZZ",
      "Name": "City Utilities: Transit Services",
      "Address1": "1505 N. Boonville",
      "Address2": "",
      "city": "Springfield",
      "State": "MO",
      "Zip": "65803",
      "County": "Greene",
      "Phone": "417-831-8782",
      "Fax": "",
      "TTY": "",
      "Tollfree": "",
      "Hotline": "",
      "Email": "",
      "Webpage": "www.cutransit.net",
      "FacebookName": "City Utilities of Springfield, MO",
      "FacebookUrl": "https://www.facebook.com/cityutilities.net",
      "Twitter": "@cutransit",
      "Services": "Public transit system for the city of Springfield.",
      "Latitude": "37.226366",
      "Longitude": "-93.29224",
      "Accuracy": "1",
      "Score": "range_interpolation",
      "AccuracyType": null
    },
    "Tags": [
      "Have Children",
      "Married Woman",
      "Age 30-49",
      "Single Man",
      "Age 13-17",
      "Current Alcohol Use"
    ]
  }
]